Unnamed: 0,day,has_5,km8_id,cuadricula_id,area_id,profile,point_id,lng,lat,formatted_address,location_type,applicant_id,user,legal_guardian_id,email,$identify,click_dashboard_menu,click_reg_user-log-in_log-in-button,click_school_pin,close_school_profile,favorite_school_from_list,favorite_school_from_listFavorites,login,map_filter_click,map_grade_click,menu_explore,menu_favorites,open_school_profile,open_school_profile3,outside_close_school_profile,remove_favorite_school_from_list,remove_favorite_school_from_listFavorites,sp_school_leadership,sp_school_performance,sp_school_photo,sp_school_price,sp_school_programs,sp_school_students
0,1,1,133,8,32,4,626,-74.129514,4.469128,"Cl. 139 Sur #14-74, Bogotá, Colombia",ROOFTOP,234120,a079fec2-0742-4045-852e-8cd3cff70598,209922,users_produccion_jardines1@yopmail.com,0,0,0,0,0,0,0,0,0,0,0,0,0,0,0,0,0,0,0,0,0,0,0
1,1,1,134,9,35,1,681,-74.1218642,4.4689818,"Cl. 137 Sur #1-84, Bogotá, Colombia",RANGE_INTERPOLATED,234121,574fb9b4-6b01-4256-9d91-6a1f55c68c5e,209923,users_produccion_jardines2@yopmail.com,0,0,0,0,0,0,0,0,0,0,0,0,0,0,0,0,0,0,0,0,0,0,0
2,1,1,135,10,40,1,788,-74.0837951,4.4742343,"Antigua Vía Al Llano #2, Bogotá, Colombia",ROOFTOP,234122,8e0c8da6-1034-4b93-bcdb-ba840c0fe7a7,209924,users_produccion_jardines3@yopmail.com,0,0,0,0,0,0,0,0,0,0,0,0,0,0,0,0,0,0,0,0,0,0,0
3,1,1,136,11,44,2,867,-74.0789732,4.4738434,"Cra. 24b Este #137a Sur-38, Bogotá, Colombia",RANGE_INTERPOLATED,234123,2b276f21-f6eb-4a76-a3f2-3730227e5be1,209925,users_produccion_jardines4@yopmail.com,0,0,0,0,0,0,0,0,0,0,0,0,0,0,0,0,0,0,0,0,0,0,0
4,1,1,138,13,52,1,1021,-74.2719967,4.4914648,"Calle 6 #6-17, Sibaté, Cundinamarca, Colombia",ROOFTOP,234124,73b0e1e6-2204-4b65-8bab-eb44620e58b8,209926,users_produccion_jardines5@yopmail.com,0,0,0,0,0,0,0,0,0,0,0,0,0,0,0,0,0,0,0,0,0,0,0
5,1,1,139,14,55,3,1088,-74.2666594,4.4849304,"Cra. 8 #4-1, Sibaté, Cundinamarca, Colombia",ROOFTOP,234125,342b342d-93eb-469e-9c05-6ead7ae870b2,209927,users_produccion_jardines6@yopmail.com,0,0,0,0,0,0,0,0,0,0,0,0,0,0,0,0,0,0,0,0,0,0,0
6,1,1,142,17,66,1,1304,-74.1303987,4.4723768,"Cl. 139 Sur #3c40, Bogotá, Colombia",ROOFTOP,234126,70fa230c-3ac3-47bf-a306-1b0dcf9785f0,209928,users_produccion_jardines7@yopmail.com,0,0,0,0,0,0,0,0,0,0,0,0,0,0,0,0,0,0,0,0,0,0,0
7,1,1,143,18,71,1,1403,-74.12058,4.4834889,"Av Caracas # 118-26, Usme, Bogotá, D.C., Bogotá, Bogotá, D.C., Colombia",ROOFTOP,234127,146e8e45-e7c7-4c72-9c0f-aa482c8007f6,209929,users_produccion_jardines8@yopmail.com,0,0,0,0,0,0,0,0,0,0,0,0,0,0,0,0,0,0,0,0,0,0,0
8,1,1,144,19,74,4,1477,-74.0973277,4.4762598,"Dg. 119a Sur #7c Este-73, Bogotá, Colombia",RANGE_INTERPOLATED,234128,28351a00-32d8-4b23-ae5e-7e59464ebffc,209930,users_produccion_jardines9@yopmail.com,0,0,0,0,0,0,0,0,0,0,0,0,0,0,0,0,0,0,0,0,0,0,0
9,1,1,147,22,86,3,1708,-74.2719967,4.4914648,"Calle 6 #6-17, Sibaté, Cundinamarca, Colombia",ROOFTOP,234129,a6eec3a0-df72-47ad-9601-d0237111b441,209931,users_produccion_jardines10@yopmail.com,0,0,0,0,0,0,0,0,0,0,0,0,0,0,0,0,0,0,0,0,0,0,0
10,1,1,148,23,89,1,1765,-74.263009,4.496305,"Cl. 15 # 8BY-1, Sibaté, Cundinamarca, Colombia",ROOFTOP,234130,0bd32c6e-9fab-40aa-ae7d-864f1a0ec8ad,209932,users_produccion_jardines11@yopmail.com,0,0,0,0,0,0,0,0,0,0,0,0,0,0,0,0,0,0,0,0,0,0,0
11,1,1,151,26,104,2,2067,-74.1485766,4.5074814,"Dg. 93 Sur #18H-29, Bogotá, Colombia",ROOFTOP,234131,2a33f402-e848-4c2c-8dec-a450cba20e74,209933,users_produccion_jardines12@yopmail.com,0,0,0,0,0,0,0,0,0,0,0,0,0,0,0,0,0,0,0,0,0,0,0
12,1,1,153,28,111,5,2209,-74.1240992,4.5038564,"Cl 96A Sur #14-83, Bogotá, Colombia",ROOFTOP,234132,f69703e0-eb87-46d5-9b42-c80455309fa6,209934,users_produccion_jardines13@yopmail.com,0,0,0,0,0,0,0,0,0,0,0,0,0,0,0,0,0,0,0,0,0,0,0
13,1,1,154,29,113,4,2258,-74.0990367,4.4980675,"Cl. 90 Sur # 8C-5, Usme, Bogotá, D.C., Bogotá, Bogotá, D.C., Colombia",ROOFTOP,234133,203e1815-3318-48c1-a8b4-85106aa42a71,209935,users_produccion_jardines14@yopmail.com,0,0,0,0,0,0,0,0,0,0,0,0,0,0,0,0,0,0,0,0,0,0,0
14,1,1,155,30,119,3,2367,-74.0829642,4.5028422,"Cl. 89C Sur #20-58, Bogotá, Colombia",ROOFTOP,234134,8705794a-b8d4-4503-9f03-418ac82e5185,209936,users_produccion_jardines15@yopmail.com,0,0,0,0,0,0,0,0,0,0,0,0,0,0,0,0,0,0,0,0,0,0,0
15,1,1,156,31,123,1,2443,-74.0766686,4.4997076,"Cl. 90 Bis Sur #24 Este-60, Bogotá, Colombia",RANGE_INTERPOLATED,234135,b720c8fa-cfd6-4513-bd56-811b50c13336,209937,users_produccion_jardines16@yopmail.com,0,0,0,0,0,0,0,0,0,0,0,0,0,0,0,0,0,0,0,0,0,0,0
16,1,1,165,40,157,4,3126,-74.1179218,4.5142148,"Cl 75 Sur #14C-30, Bogotá, Colombia",ROOFTOP,234136,398fba42-02a6-4692-9b3f-a33f870f8b73,209938,users_produccion_jardines17@yopmail.com,0,0,0,0,0,0,0,0,0,0,0,0,0,0,0,0,0,0,0,0,0,0,0
17,1,1,166,41,162,1,3222,-74.0981987,4.5086228,"Cra. 10 Bis Este # 81C-14, Usme, Bogotá, D.C., Bogotá, Bogotá, D.C., Colombia",ROOFTOP,234137,9e21741c-4e3b-4079-8d31-4f0e67f4c36c,209939,users_produccion_jardines18@yopmail.com,0,0,0,0,0,0,0,0,0,0,0,0,0,0,0,0,0,0,0,0,0,0,0
18,1,1,167,42,166,3,3312,-74.0831453,4.5085994,"Cra. 21 Este #80b Sur-22, Bogotá, Colombia",RANGE_INTERPOLATED,234138,90a457f0-af61-4dc6-a4c2-eee6134790e1,209940,users_produccion_jardines19@yopmail.com,0,0,0,0,0,0,0,0,0,0,0,0,0,0,0,0,0,0,0,0,0,0,0
19,1,1,170,45,178,3,3548,-74.2368521,4.5305813,"Tv. 11 #5-68, Sibaté, Soacha, Cundinamarca, Colombia",ROOFTOP,234139,62711774-ab23-41a3-b3f7-18cfc1c83f1f,209941,users_produccion_jardines20@yopmail.com,0,0,0,0,0,0,0,0,0,0,0,0,0,0,0,0,0,0,0,0,0,0,0
20,1,1,175,50,200,2,3989,-74.1480909,4.538447,"Cra. 18h # 68C-5, Cdad. Bolívar, Bogotá, D.C., Bogotá, Bogotá, D.C., Colombia",ROOFTOP,234140,b82d44d8-7cb5-406e-beb2-4114e7d1374a,209942,users_produccion_jardines21@yopmail.com,0,0,0,0,0,0,0,0,0,0,0,0,0,0,0,0,0,0,0,0,0,0,0
21,1,1,176,51,204,5,4078,-74.1274656,4.5352421,"Cl. 71 Sur #82, Bogotá, Colombia",ROOFTOP,234141,721202ea-e862-4f1a-8dcf-f2bf17b7001f,209943,users_produccion_jardines22@yopmail.com,0,0,0,0,0,0,0,0,0,0,0,0,0,0,0,0,0,0,0,0,0,0,0
22,1,1,177,52,208,2,4152,-74.10854,4.539258,"Dg. 53a Sur # 2D-68, Usme, Bogotá, D.C., Bogotá, Bogotá, D.C., Colombia",ROOFTOP,234142,d0b56c1c-6b98-4486-a045-7721470f0205,209944,users_produccion_jardines23@yopmail.com,0,0,0,0,0,0,0,0,0,0,0,0,0,0,0,0,0,0,0,0,0,0,0
23,1,1,178,53,209,4,4179,-74.104593,4.533906,"Cl. 63 Sur # 5-33, Usme, Bogotá, D.C., Bogotá, Bogotá, D.C., Colombia",ROOFTOP,234143,c5557e52-3fdb-4119-8dae-c315e48c533e,209945,users_produccion_jardines24@yopmail.com,0,0,0,0,0,0,0,0,0,0,0,0,0,0,0,0,0,0,0,0,0,0,0
24,1,1,179,54,215,4,4290,-74.083984,4.5431037,"Cra. 13 Bis Este # 43B-16, San Cristóbal, Bogotá, D.C., Bogotá, Bogotá, D.C., Colombia",ROOFTOP,234144,e9543e2f-13b9-4f81-a194-e23f45f7dfad,209946,users_produccion_jardines25@yopmail.com,0,0,0,0,0,0,0,0,0,0,0,0,0,0,0,0,0,0,0,0,0,0,0
25,1,1,182,57,226,2,4507,-74.2374507,4.5531454,"40 #26 Sur-290, Soacha, Cundinamarca, Colombia",RANGE_INTERPOLATED,234145,f2c2de84-bd5b-4049-a0a2-3eb095a53cb7,209947,users_produccion_jardines26@yopmail.com,0,0,0,0,0,0,0,0,0,0,0,0,0,0,0,0,0,0,0,0,0,0,0
26,1,1,183,58,231,3,4613,-74.2287701,4.5585447,"Cra. 3 #15, Soacha, Cundinamarca, Colombia",RANGE_INTERPOLATED,234146,0e0f9e4c-de5a-4679-8fdb-36f9ccd3f5ad,209948,users_produccion_jardines27@yopmail.com,0,0,0,0,0,0,0,0,0,0,0,0,0,0,0,0,0,0,0,0,0,0,0
27,1,1,185,60,240,2,4787,-74.182599,4.562296,"Cra. 55a Este #45-31, Soacha, Cundinamarca, Colombia",ROOFTOP,234147,032371ec-12ae-4fdb-8152-422b38b44ed9,209949,users_produccion_jardines28@yopmail.com,0,0,0,0,0,0,0,0,0,0,0,0,0,0,0,0,0,0,0,0,0,0,0
28,1,1,187,62,245,4,4898,-74.158418,4.546771,"Cra. 26c #71J-85, Bogotá, Colombia",ROOFTOP,234148,a0ab4a0f-1472-40e9-b77e-1e2964d9483f,209950,users_produccion_jardines29@yopmail.com,0,0,0,0,0,0,0,0,0,0,0,0,0,0,0,0,0,0,0,0,0,0,0
29,1,1,188,63,250,2,4986,-74.135732,4.545083,"Cl. 71 Sur # 16A BIS B-97, Cdad. Bolívar, Bogotá, D.C., Bogotá, Bogotá, D.C., Colombia",ROOFTOP,234149,d85b83a7-77cb-4d50-90bf-d8e3ceddb727,209951,users_produccion_jardines30@yopmail.com,0,0,0,0,0,0,0,0,0,0,0,0,0,0,0,0,0,0,0,0,0,0,0
30,1,1,189,64,254,3,5074,-74.110746,4.5500322,"Cra. 5b Bis #48-56, Bogotá, Colombia",ROOFTOP,234150,22873afe-5424-46b0-97f5-d9808e611461,209952,users_produccion_jardines31@yopmail.com,0,0,0,0,0,0,0,0,0,0,0,0,0,0,0,0,0,0,0,0,0,0,0
31,1,1,190,65,260,2,5185,-74.0963318,4.5577443,"Cl. 36g Sur #1a-29, Bogotá, Colombia",ROOFTOP,234151,d54a6ff3-1910-46b4-bdbd-f3b02a816b4f,209953,users_produccion_jardines32@yopmail.com,0,0,0,0,0,0,0,0,0,0,0,0,0,0,0,0,0,0,0,0,0,0,0
32,1,1,191,66,262,5,5233,-74.0782289,4.5452545,"Cl. 42 Sur # 17B-47, San Cristóbal, Bogotá, D.C., Bogotá, Bogotá, D.C., Colombia",ROOFTOP,234152,40a7cbe1-503d-4c85-96bc-50e65de9a169,209954,users_produccion_jardines33@yopmail.com,0,0,0,0,0,0,0,0,0,0,0,0,0,0,0,0,0,0,0,0,0,0,0
33,1,1,192,67,267,3,5331,-74.0685605,4.5611551,"Cl. 18 Sur #24-03, Bogotá, Colombia",ROOFTOP,234153,8fbc548d-0b66-4aa2-92c8-f5e95ca53b63,209955,users_produccion_jardines34@yopmail.com,0,0,0,0,0,0,0,0,0,0,0,0,0,0,0,0,0,0,0,0,0,0,0
34,1,1,194,69,275,5,5498,-74.248364,4.5757329,"Cra. 15 # 37-187, Soacha, Cundinamarca, Colombia",ROOFTOP,234154,7d8e8be7-3e15-4574-9cc0-98d4d07f9c56,209956,users_produccion_jardines35@yopmail.com,0,0,0,0,0,0,0,0,0,0,0,0,0,0,0,0,0,0,0,0,0,0,0
35,1,1,195,70,280,5,5595,-74.218765,4.5724349,"Cl. 7 # 2-18, Soacha, Cundinamarca, Colombia",ROOFTOP,234155,f2c8501e-8cbf-4a43-a00b-0f26e2f9fe63,209957,users_produccion_jardines36@yopmail.com,0,0,0,0,0,0,0,0,0,0,0,0,0,0,0,0,0,0,0,0,0,0,0
36,1,1,196,71,284,4,5675,-74.2052158,4.5745694,"Cra. 13 Este #25, Soacha, Cundinamarca, Colombia",ROOFTOP,234156,5ae94125-0598-4c26-8b61-5e2ff4278c97,209958,users_produccion_jardines37@yopmail.com,0,0,0,0,0,0,0,0,0,0,0,0,0,0,0,0,0,0,0,0,0,0,0
37,1,1,197,72,288,4,5753,-74.1879668,4.5780859,"Cl. 37 Sur #17c67, Soacha, Cundinamarca, Colombia",ROOFTOP,234157,9df074a1-68d0-493a-b062-35bbb4d4c204,209959,users_produccion_jardines38@yopmail.com,0,0,0,0,0,0,0,0,0,0,0,0,0,0,0,0,0,0,0,0,0,0,0
38,1,1,198,73,291,4,5818,-74.174846,4.5768257,"Cra. 75b # 75C-37, Cdad. Bolívar, Soacha, Bogotá, Bogotá, D.C., Colombia",ROOFTOP,234158,4f025525-45d5-4931-919e-539fd1f19791,209960,users_produccion_jardines39@yopmail.com,0,0,0,0,0,0,0,0,0,0,0,0,0,0,0,0,0,0,0,0,0,0,0
39,1,1,199,74,295,4,5891,-74.1562682,4.5764745,"Cl. 68b Sur # 48B-24, Cdad. Bolívar, Bogotá, D.C., Bogotá, Bogotá, D.C., Colombia",ROOFTOP,234159,05638923-2a75-4c25-9ec1-ac8f582398b7,209961,users_produccion_jardines40@yopmail.com,0,0,0,0,0,0,0,0,0,0,0,0,0,0,0,0,0,0,0,0,0,0,0
40,1,1,200,75,300,2,5983,-74.1283805,4.5742012,"Cl. 47b Sur #23 - 35, Bogotá, Colombia",ROOFTOP,234160,89257c7a-e27b-4d5b-9ae6-9425e7f2291d,209962,users_produccion_jardines41@yopmail.com,0,0,0,0,0,0,0,0,0,0,0,0,0,0,0,0,0,0,0,0,0,0,0
41,1,1,201,76,304,3,6065,-74.114351,4.577778,"Cra. 18b # 32-43, Rafael Uribe Uribe, Bogotá, D.C., Bogotá, Bogotá, D.C., Colombia",ROOFTOP,234161,e81e8ace-7c4e-409b-a31a-d29704df7a83,209963,users_produccion_jardines42@yopmail.com,0,0,0,0,0,0,0,0,0,0,0,0,0,0,0,0,0,0,0,0,0,0,0
42,1,1,202,77,305,3,6091,-74.1017854,4.5660367,"Cra. 8a #34-10, Bogotá, Colombia",ROOFTOP,234162,2667abd0-726c-4172-9a2c-97705669104b,209964,users_produccion_jardines43@yopmail.com,0,0,0,0,0,0,0,0,0,0,0,0,0,0,0,0,0,0,0,0,0,0,0
43,1,1,203,78,312,5,6238,-74.0786276,4.5756519,"Cra 4 Este #7-58, Bogotá, Colombia",ROOFTOP,234163,1625434d-bf7d-445d-9c15-d4d8acd43e5b,209965,users_produccion_jardines44@yopmail.com,0,0,0,0,0,0,0,0,0,0,0,0,0,0,0,0,0,0,0,0,0,0,0
44,1,1,204,79,316,3,6301,-74.0685759,4.5701569,"Cl. 11 Sur #16 Este-39, Bogotá, Colombia",RANGE_INTERPOLATED,234164,0c8bcad3-bc0d-48b0-9f10-b3c135f2bde0,209966,users_produccion_jardines45@yopmail.com,0,0,0,0,0,0,0,0,0,0,0,0,0,0,0,0,0,0,0,0,0,0,0
45,1,1,205,80,318,5,6360,-74.249536,4.5796253,"Calle 28B # 7-39, Soacha, Cundinamarca, Colombia",ROOFTOP,234165,fb2a81cc-b0b0-4f68-84fc-fa634b60b512,209967,users_produccion_jardines46@yopmail.com,0,0,0,0,0,0,0,0,0,0,0,0,0,0,0,0,0,0,0,0,0,0,0
46,1,1,207,82,326,1,6501,-74.220033,4.589522,"Cl. 13A # 16-4, Soacha, Cundinamarca, Colombia",ROOFTOP,234166,ef5a8988-6bf9-4f49-8608-e39b74f21d0f,209968,users_produccion_jardines47@yopmail.com,0,0,0,0,0,0,0,0,0,0,0,0,0,0,0,0,0,0,0,0,0,0,0
47,1,1,208,83,329,3,6570,-74.214765,4.586701,"Cra. 11b # 19-13, Soacha, Cundinamarca, Colombia",ROOFTOP,234167,9407a50d-772f-48fc-8cec-2aeceddf44d3,209969,users_produccion_jardines48@yopmail.com,0,0,0,0,0,0,0,0,0,0,0,0,0,0,0,0,0,0,0,0,0,0,0
48,1,1,209,84,336,4,6716,-74.1881088,4.5905925,"Cra. 2 #1056, Soacha, Cundinamarca, Colombia",ROOFTOP,234168,7cb6fcbd-28da-47f6-8608-21ac98750494,209970,users_produccion_jardines49@yopmail.com,0,0,0,0,0,0,0,0,0,0,0,0,0,0,0,0,0,0,0,0,0,0,0
49,1,1,210,85,338,2,6744,-74.1695713,4.5862837,"Cl. 63a Sur #13-75, Bogotá, Colombia",ROOFTOP,234169,843cf5a6-2ddb-490c-8bb2-f45c7c6c4663,209971,users_produccion_jardines50@yopmail.com,0,0,0,0,0,0,0,0,0,0,0,0,0,0,0,0,0,0,0,0,0,0,0
50,1,1,211,86,344,3,6871,-74.1458447,4.59288,"Dg. 49 Sur #56a2, Bogotá, Colombia",ROOFTOP,234170,5e17fda2-44e6-4022-94e6-2521ab25a0b7,209972,users_produccion_jardines51@yopmail.com,0,0,0,0,0,0,0,0,0,0,0,0,0,0,0,0,0,0,0,0,0,0,0
51,1,1,212,87,347,5,6939,-74.141005,4.5927859,"Dg. 47a Sur # 53B-27, Tunjuelito, Bogotá, D.C., Bogotá, Bogotá, D.C., Colombia",ROOFTOP,234171,e8662a5c-6058-4e38-a1db-7ecfb71a2552,209973,users_produccion_jardines52@yopmail.com,0,0,0,0,0,0,0,0,0,0,0,0,0,0,0,0,0,0,0,0,0,0,0
52,1,1,213,88,349,4,6971,-74.1170294,4.5836991,"Cra. 25A # 32A-9, Rafael Uribe Uribe, Bogotá, D.C., Bogotá, Bogotá, D.C., Colombia",ROOFTOP,234172,6991a73b-0753-48a8-a5bf-83f268da09b6,209974,users_produccion_jardines53@yopmail.com,0,0,0,0,0,0,0,0,0,0,0,0,0,0,0,0,0,0,0,0,0,0,0
53,1,1,214,89,356,2,7105,-74.0953148,4.5951352,"Cra. 23a #32, Antonio Nariño, Bogotá, Colombia",ROOFTOP,234173,a37a2d0b-b182-4110-b168-0deb1981a113,209975,users_produccion_jardines54@yopmail.com,0,0,0,0,0,0,0,0,0,0,0,0,0,0,0,0,0,0,0,0,0,0,0
54,1,1,215,90,359,5,7167,-74.0886351,4.5943302,"Cl. 2 #16-2 a 16-76, Bogotá, Colombia",ROOFTOP,234174,6f69835a-43f6-4273-8975-c544a17a2583,209976,users_produccion_jardines55@yopmail.com,0,0,0,0,0,0,0,0,0,0,0,0,0,0,0,0,0,0,0,0,0,0,0
55,1,1,216,91,362,1,7227,-74.0651772,4.5845584,"Cra. 8b Este #5a-70, Bogotá, Colombia",RANGE_INTERPOLATED,234175,6c525a1a-3358-4ea4-b6eb-c9cdfab1034c,209977,users_produccion_jardines56@yopmail.com,0,0,0,0,0,0,0,0,0,0,0,0,0,0,0,0,0,0,0,0,0,0,0
56,1,1,217,92,367,2,7322,-74.0589919,4.6006926,"Cra. 1 #20-65, Bogotá, Colombia",ROOFTOP,234176,1e7826e7-5506-4ff4-a329-70c0d9e656ff,209978,users_produccion_jardines57@yopmail.com,0,0,0,0,0,0,0,0,0,0,0,0,0,0,0,0,0,0,0,0,0,0,0
57,1,1,218,93,372,1,7423,-74.2269184,4.6094296,"Cra. 38 # 10-306, Vda. Paso Ancho, Soacha, Cundinamarca, Colombia",ROOFTOP,234177,00423e84-8287-4731-aced-5ea0d50b6d4d,209979,users_produccion_jardines58@yopmail.com,0,0,0,0,0,0,0,0,0,0,0,0,0,0,0,0,0,0,0,0,0,0,0
58,1,1,219,94,374,3,7476,-74.2220139,4.6070195,"Cl. 16 #13f-33, Soacha, Cundinamarca, Colombia",ROOFTOP,234178,d9f5ad00-cee2-4b9a-a2c9-2fa9a4ff5219,209980,users_produccion_jardines59@yopmail.com,0,0,0,0,0,0,0,0,0,0,0,0,0,0,0,0,0,0,0,0,0,0,0
59,1,1,220,95,380,2,7584,-74.204245,4.612978,"Cra. 81g # 77-51, Bosa, Bogotá, D.C., Bogotá, Bogotá, D.C., Colombia",ROOFTOP,234179,d6866392-4d24-4a3e-9e48-aff52953ae3b,209981,users_produccion_jardines60@yopmail.com,0,0,0,0,0,0,0,0,0,0,0,0,0,0,0,0,0,0,0,0,0,0,0
60,1,1,221,96,383,3,7655,-74.1951064,4.6084622,"Cra. 80m # 71C-16, Bosa, Bogotá, D.C., Bogotá, Bogotá, D.C., Colombia",ROOFTOP,234180,aa15b3e9-5798-4c26-bff9-210102a74397,209982,users_produccion_jardines61@yopmail.com,0,0,0,0,0,0,0,0,0,0,0,0,0,0,0,0,0,0,0,0,0,0,0
61,1,1,222,97,388,4,7746,-74.1635002,4.6087227,"Cra. 77q # 46A-26, Kennedy, Bogotá, D.C., Bogotá, Bogotá, D.C., Colombia",ROOFTOP,234181,a99a507c-6856-48cc-9509-df80db89ca96,209983,users_produccion_jardines62@yopmail.com,0,0,0,0,0,0,0,0,0,0,0,0,0,0,0,0,0,0,0,0,0,0,0
62,1,1,223,98,389,2,7772,-74.1601947,4.6075623,"Cl. 44b Bis BSur #73C-22, Bogotá, Colombia",ROOFTOP,234182,a5e2decb-0ba6-452a-ab5f-3528ecc2de05,209984,users_produccion_jardines63@yopmail.com,0,0,0,0,0,0,0,0,0,0,0,0,0,0,0,0,0,0,0,0,0,0,0
63,1,1,224,99,395,2,7892,-74.134761,4.609551,"Cra. 68h Bis # 31A-82, Kennedy, Bogotá, D.C., Bogotá, Bogotá, D.C., Colombia",ROOFTOP,234183,3d7002d1-c574-42fb-8337-818d4762b005,209985,users_produccion_jardines64@yopmail.com,0,0,0,0,0,0,0,0,0,0,0,0,0,0,0,0,0,0,0,0,0,0,0
64,1,1,225,100,398,1,7941,-74.1152252,4.6011709,"Cra. 38a # 12-33, Puente Aranda, Bogotá, D.C., Bogotá, Bogotá, D.C., Colombia",ROOFTOP,234184,3d0130b2-08b8-49c3-bd23-43e3f42eee73,209986,users_produccion_jardines65@yopmail.com,0,0,0,0,0,0,0,0,0,0,0,0,0,0,0,0,0,0,0,0,0,0,0
65,1,1,226,101,402,2,8027,-74.0929281,4.6016637,"Tv. 22a # 5B-20, Los Mártires, Bogotá, D.C., Bogotá, Bogotá, D.C., Colombia",ROOFTOP,234185,ba97dd19-ec94-4141-a9fe-70d6051a6e01,209987,users_produccion_jardines66@yopmail.com,0,0,0,0,0,0,0,0,0,0,0,0,0,0,0,0,0,0,0,0,0,0,0
66,1,1,227,102,405,1,8082,-74.088188,4.60501,"Cra 20 # 10A-25, Los Mártires, Bogotá, D.C., Bogotá, Bogotá, D.C., Colombia",ROOFTOP,234186,855c9edc-05d5-4dda-beb3-9d892daf5391,209988,users_produccion_jardines67@yopmail.com,0,0,0,0,0,0,0,0,0,0,0,0,0,0,0,0,0,0,0,0,0,0,0
67,1,1,228,103,410,1,8182,-74.0610918,4.6029193,"Cra. 3 Este #26-85, Santa Fé, Bogotá, Colombia",ROOFTOP,234187,2cb26a52-3c3e-483a-a5a2-1e4eec3eed0b,209989,users_produccion_jardines68@yopmail.com,0,0,0,0,0,0,0,0,0,0,0,0,0,0,0,0,0,0,0,0,0,0,0
68,1,1,232,107,427,4,8535,-74.2094217,4.6301436,"Calle 81 Sur #96 - 24, Bogotá, Colombia",ROOFTOP,234188,da15aa16-4404-4d24-86f5-e66ac6831ba4,209990,users_produccion_jardines69@yopmail.com,0,0,0,0,0,0,0,0,0,0,0,0,0,0,0,0,0,0,0,0,0,0,0
69,1,1,233,108,432,4,8630,-74.182872,4.6299279,"Cra. 88c # 52B-35, Bosa, Bogotá, D.C., Bogotá, Bogotá, D.C., Colombia",ROOFTOP,234189,02cebb54-d8f1-41de-8a39-a5ca1eedd7be,209991,users_produccion_jardines70@yopmail.com,0,0,0,0,0,0,0,0,0,0,0,0,0,0,0,0,0,0,0,0,0,0,0
70,1,1,234,109,436,1,8701,-74.16253,4.627123,"Cl. 41 Sur #80I-8, Bogotá, Colombia",ROOFTOP,234190,28fba734-2f3e-4bb4-a0d6-c97946c79959,209992,users_produccion_jardines71@yopmail.com,0,0,0,0,0,0,0,0,0,0,0,0,0,0,0,0,0,0,0,0,0,0,0
71,1,1,235,110,439,5,8770,-74.1533627,4.6259687,"Cra. 78n # 35C-37, Kennedy, Bogotá, D.C., Bogotá, Bogotá, D.C., Colombia",ROOFTOP,234191,0d4d2831-e1dc-4100-a74e-f7359ac13461,209993,users_produccion_jardines72@yopmail.com,0,0,0,0,0,0,0,0,0,0,0,0,0,0,0,0,0,0,0,0,0,0,0
72,1,1,236,111,444,3,8873,-74.132298,4.63388,"Tv. 71b # 7C-24, Kennedy, Bogotá, D.C., Bogotá, Bogotá, D.C., Colombia",ROOFTOP,234192,37e19e81-229d-4278-9af6-1690b9487039,209994,users_produccion_jardines73@yopmail.com,0,0,0,0,0,0,0,0,0,0,0,0,0,0,0,0,0,0,0,0,0,0,0
73,1,1,237,112,448,4,8956,-74.1117558,4.6263734,"Cra. 53f # 5C-85, Puente Aranda, Bogotá, D.C., Bogotá, Bogotá, D.C., Colombia",ROOFTOP,234193,ba6aa087-e792-4743-aa5b-3078944a2c8d,209995,users_produccion_jardines74@yopmail.com,0,0,0,0,0,0,0,0,0,0,0,0,0,0,0,0,0,0,0,0,0,0,0
74,1,1,238,113,451,2,9008,-74.0986466,4.6305291,"Cra. 44b # 20C-97, Puente Aranda, Bogotá, D.C., Bogotá, Bogotá, D.C., Colombia",ROOFTOP,234194,778c3922-b71f-4764-a261-7f1acf9e1c1b,209996,users_produccion_jardines75@yopmail.com,0,0,0,0,0,0,0,0,0,0,0,0,0,0,0,0,0,0,0,0,0,0,0
75,1,1,239,114,453,5,9051,-74.082818,4.619962,"Cra 27 #22b14, Bogotá, Colombia",ROOFTOP,234195,5b9d3d7e-d131-4b2a-9f30-aa6a493fa883,209997,users_produccion_jardines76@yopmail.com,0,0,0,0,0,0,0,0,0,0,0,0,0,0,0,0,0,0,0,0,0,0,0
76,1,1,240,115,457,5,9138,-74.0637363,4.6203548,"Cra. 5 #340, Bogotá, Colombia",ROOFTOP,234196,5d6b1072-6c10-4e15-abb0-ca83c33db0f4,209998,users_produccion_jardines77@yopmail.com,0,0,0,0,0,0,0,0,0,0,0,0,0,0,0,0,0,0,0,0,0,0,0
77,1,1,241,116,462,2,9231,-74.0559162,4.6254048,"Tv. 7a Este #39-2, Bogotá, Colombia",RANGE_INTERPOLATED,234197,9799a12c-0e98-47ee-9f48-8e7c7263f9db,209999,users_produccion_jardines78@yopmail.com,0,0,0,0,0,0,0,0,0,0,0,0,0,0,0,0,0,0,0,0,0,0,0
78,1,1,244,119,473,4,9456,-74.1901367,4.6396659,"Cl. 54c Sur #98-51, Porvenir, Bogotá, Colombia",ROOFTOP,234198,041b82a6-d6d3-4684-8597-58f4dc82be14,210000,users_produccion_jardines79@yopmail.com,0,0,0,0,0,0,0,0,0,0,0,0,0,0,0,0,0,0,0,0,0,0,0
79,1,1,245,120,480,1,9582,-74.168845,4.646037,"Cl. 34 Bis ASur # 93-68, Kennedy, Bogotá, D.C., Bogotá, Bogotá, D.C., Colombia",ROOFTOP,234199,7e6b48b9-fb8b-4a59-a5e7-a525c1aabdb5,210001,users_produccion_jardines80@yopmail.com,0,0,0,0,0,0,0,0,0,0,0,0,0,0,0,0,0,0,0,0,0,0,0
80,1,1,246,121,481,3,9608,-74.1586563,4.6427395,"Cra. 87f # 5C-9, Kennedy, Bogotá, D.C., Bogotá, Bogotá, D.C., Colombia",ROOFTOP,234200,4ce803f3-4969-426d-823d-1f304379963f,210002,users_produccion_jardines81@yopmail.com,0,0,0,0,0,0,0,0,0,0,0,0,0,0,0,0,0,0,0,0,0,0,0
81,1,1,247,122,486,5,9720,-74.1290609,4.636724,"Tv. 71b # 9D-1, Kennedy, Bogotá, D.C., Bogotá, Bogotá, D.C., Colombia",ROOFTOP,234201,e5299108-7042-4917-a0f5-63498798ac44,210003,users_produccion_jardines82@yopmail.com,0,0,0,0,0,0,0,0,0,0,0,0,0,0,0,0,0,0,0,0,0,0,0
82,1,1,248,123,489,2,9771,-74.1187198,4.6353111,"Cra. 67 #12-59, Puente Aranda, Bogotá, Colombia",ROOFTOP,234202,057348f4-f030-452e-8567-e79824793868,210004,users_produccion_jardines83@yopmail.com,0,0,0,0,0,0,0,0,0,0,0,0,0,0,0,0,0,0,0,0,0,0,0
83,1,1,249,124,494,2,9870,-74.0940072,4.6398472,"Av. El Dorado #50, Bogotá, Colombia",ROOFTOP,234203,79078b61-e9aa-44cb-8632-696e6a127d0b,210005,users_produccion_jardines84@yopmail.com,0,0,0,0,0,0,0,0,0,0,0,0,0,0,0,0,0,0,0,0,0,0,0
84,1,1,250,125,498,3,9951,-74.0800668,4.6378474,"Ave Cra 30 #3, Bogotá, Colombia",ROOFTOP,234204,e300fd8f-7424-421b-b12b-a65de4fbe3b0,210006,users_produccion_jardines85@yopmail.com,0,0,0,0,0,0,0,0,0,0,0,0,0,0,0,0,0,0,0,0,0,0,0
85,1,1,251,126,501,3,10008,-74.0629136,4.6386633,"Cl. 46 #5-94, Bogotá, Colombia",ROOFTOP,234205,c637fe50-0552-40a4-b118-41cc0b3ac6df,210007,users_produccion_jardines86@yopmail.com,0,0,0,0,0,0,0,0,0,0,0,0,0,0,0,0,0,0,0,0,0,0,0
86,1,1,257,132,526,1,10504,-74.148045,4.655982,"Ac 12 # 88D-31, Kennedy, Bogotá, D.C., Bogotá, Bogotá, D.C., Colombia",ROOFTOP,234206,1f45d6d9-4b9d-4853-8357-4bff990e938a,210008,users_produccion_jardines87@yopmail.com,0,0,0,0,0,0,0,0,0,0,0,0,0,0,0,0,0,0,0,0,0,0,0
87,1,1,258,133,530,4,10594,-74.130595,4.659176,"Cl. 18a # 80A-50, Fontibón, Bogotá, D.C., Bogotá, Bogotá, D.C., Colombia",ROOFTOP,234207,608b85e3-1562-493f-a6eb-134404ffc034,210009,users_produccion_jardines88@yopmail.com,0,0,0,0,0,0,0,0,0,0,0,0,0,0,0,0,0,0,0,0,0,0,0
88,1,1,259,134,534,2,10664,-74.1138533,4.658962,"Ac. 24 #69b65, Bogotá, Colombia",ROOFTOP,234208,33180f9a-009a-404c-8aa4-cb0540a26e8d,210010,users_produccion_jardines89@yopmail.com,0,0,0,0,0,0,0,0,0,0,0,0,0,0,0,0,0,0,0,0,0,0,0
89,1,1,260,135,540,5,10784,-74.094941,4.664775,"Av. 68 # 52-89, Engativá, Bogotá, D.C., Bogotá, Bogotá, D.C., Colombia",ROOFTOP,234209,f995748a-ffde-49ec-8c17-0619110d4351,210011,users_produccion_jardines90@yopmail.com,0,0,0,0,0,0,0,0,0,0,0,0,0,0,0,0,0,0,0,0,0,0,0
90,1,1,261,136,541,2,10806,-74.081548,4.655266,"Cl 63 #45-10, Bogotá, Colombia",ROOFTOP,234210,688921d2-461b-4cb4-ae48-c72667213be0,210012,users_produccion_jardines91@yopmail.com,0,0,0,0,0,0,0,0,0,0,0,0,0,0,0,0,0,0,0,0,0,0,0
91,1,1,262,137,548,3,10955,-74.062183,4.66498,"Cl. 76 # 20B-62, Barrios Unidos, Bogotá, D.C., Bogotá, Bogotá, D.C., Colombia",ROOFTOP,234211,de282a71-a448-48da-b179-9cbf4c9bc129,210013,users_produccion_jardines92@yopmail.com,0,0,0,0,0,0,0,0,0,0,0,0,0,0,0,0,0,0,0,0,0,0,0
92,1,1,263,138,550,1,10985,-74.0427333,4.6648858,"Tv. 2a #86-2, Bogotá, Colombia",RANGE_INTERPOLATED,234212,7830ec61-01b1-49e2-9493-87c77b2f912a,210014,users_produccion_jardines93@yopmail.com,0,0,0,0,0,0,0,0,0,0,0,0,0,0,0,0,0,0,0,0,0,0,0
93,1,1,265,140,558,1,11142,-74.0060419,4.6551767,"Ramal Kabalgar #11, La Calera, Cundinamarca, Colombia",ROOFTOP,234213,aceb6f65-6aac-412b-8e90-6983b101c08f,210015,users_produccion_jardines94@yopmail.com,0,0,0,0,0,0,0,0,0,0,0,0,0,0,0,0,0,0,0,0,0,0,0
94,1,1,270,145,578,3,11542,-74.2190006,4.6861135,"Barrio el sol, Calle18 #10-05, Funza, Mosquera, Cundinamarca, Colombia",ROOFTOP,234214,ccdad49d-97c0-4a2c-b8a5-b277e3d9fcb8,210016,users_produccion_jardines95@yopmail.com,0,0,0,0,0,0,0,0,0,0,0,0,0,0,0,0,0,0,0,0,0,0,0
95,1,1,272,147,588,3,11752,-74.1818658,4.6903203,"Cl 2 A # 11-45, Mosquera, Cundinamarca, Colombia",ROOFTOP,234215,2b6ed4a5-7ed4-4c84-96bd-c84b0c89899a,210017,users_produccion_jardines96@yopmail.com,0,0,0,0,0,0,0,0,0,0,0,0,0,0,0,0,0,0,0,0,0,0,0
96,1,1,273,148,590,5,11800,-74.1637643,4.6779091,"Cl. 14b # 116-10, Fontibón, Bogotá, D.C., Bogotá, Bogotá, D.C., Colombia",ROOFTOP,234216,20774fda-0a72-48e5-a5c2-543350f20818,210018,users_produccion_jardines97@yopmail.com,0,0,0,0,0,0,0,0,0,0,0,0,0,0,0,0,0,0,0,0,0,0,0
97,1,1,274,149,595,4,11896,-74.153008,4.683326,"Cra. 114b #17D-55, Bogotá, Colombia",ROOFTOP,234217,6699d0cc-7284-4f8a-ab88-57f01ab06b8f,210019,users_produccion_jardines98@yopmail.com,0,0,0,0,0,0,0,0,0,0,0,0,0,0,0,0,0,0,0,0,0,0,0
98,1,1,275,150,599,1,11961,-74.138174,4.681375,"Cra. 103 # 23D-3, Fontibón, Bogotá, D.C., Bogotá, Bogotá, D.C., Colombia",ROOFTOP,234218,c85273d4-22ed-4bba-8c89-c5bb81cf58b3,210020,users_produccion_jardines99@yopmail.com,0,0,0,0,0,0,0,0,0,0,0,0,0,0,0,0,0,0,0,0,0,0,0
99,1,1,276,151,601,1,12001,-74.1204748,4.6752522,"Cl. 25g #85C-23, Bogotá, Colombia",ROOFTOP,234219,c55d031b-cdfd-4b14-b116-0d21467f066a,210021,users_produccion_jardines100@yopmail.com,0,0,0,0,0,0,0,0,0,0,0,0,0,0,0,0,0,0,0,0,0,0,0
100,1,1,277,152,607,2,12128,-74.1014299,4.68838,"Cra. 77 Bis # 69A-95, Engativá, Bogotá, D.C., Bogotá, Bogotá, D.C., Colombia",ROOFTOP,234220,c54ccb9d-2c32-4cc0-a942-4cb16eaa1b86,210022,users_produccion_jardines101@yopmail.com,0,0,0,0,0,0,0,0,0,0,0,0,0,0,0,0,0,0,0,0,0,0,0
101,1,1,278,153,609,3,12174,-74.08835,4.677668,"Cl. 70 # 68B-54, Engativá, Bogotá, D.C., Bogotá, Bogotá, D.C., Colombia",ROOFTOP,234221,c7271d16-615e-47b8-b892-8df4688998b6,210023,users_produccion_jardines102@yopmail.com,0,0,0,0,0,0,0,0,0,0,0,0,0,0,0,0,0,0,0,0,0,0,0
102,1,1,279,154,616,4,12313,-74.06039,4.687006,"Cl. 99 # 47A-27, Barrios Unidos, Bogotá, D.C., Bogotá, Bogotá, D.C., Colombia",ROOFTOP,234222,17c12c6a-d03c-43be-b9b6-ea94777c5499,210024,users_produccion_jardines103@yopmail.com,0,0,0,0,0,0,0,0,0,0,0,0,0,0,0,0,0,0,0,0,0,0,0
103,1,1,280,155,620,1,12383,-74.0427264,4.6836736,"Cra. 11 #185b32, San Antonio norte, Bogotá, Colombia",ROOFTOP,234223,9aa7b1ba-5496-4c12-90eb-62aed686df63,210025,users_produccion_jardines104@yopmail.com,0,0,0,0,0,0,0,0,0,0,0,0,0,0,0,0,0,0,0,0,0,0,0
104,1,1,281,156,623,1,12443,-74.0294057,4.6883468,"Cra. 2 # 110-95, Usaquén, Bogotá, D.C., Bogotá, Bogotá, D.C., Colombia",ROOFTOP,234224,04043850-65bb-42bd-bbde-3fc2a64dec39,210026,users_produccion_jardines105@yopmail.com,0,0,0,0,0,0,0,0,0,0,0,0,0,0,0,0,0,0,0,0,0,0,0
105,1,1,282,157,625,3,12495,-74.0135721,4.6708959,"Bogotá - La Calera #5, Bogotá, Colombia",ROOFTOP,234225,b57c3709-fc22-4316-91a2-638f3689a1da,210027,users_produccion_jardines106@yopmail.com,0,0,0,0,0,0,0,0,0,0,0,0,0,0,0,0,0,0,0,0,0,0,0
106,1,1,283,158,630,2,12592,-73.9886287,4.6778498,"Cl. La Loma #9, La Paloma, La Calera, Cundinamarca, Colombia",ROOFTOP,234226,aeb362ec-0bc2-49e9-878f-ba491b2c1e03,210028,users_produccion_jardines107@yopmail.com,0,0,0,0,0,0,0,0,0,0,0,0,0,0,0,0,0,0,0,0,0,0,0
107,1,1,287,162,647,1,12927,-74.2275221,4.7025946,"Cra. 4 Este #2-10, Mosquera, Cundinamarca, Colombia",ROOFTOP,234227,38c18ece-5ef5-4144-91e3-b1f84c268c77,210029,users_produccion_jardines108@yopmail.com,0,0,0,0,0,0,0,0,0,0,0,0,0,0,0,0,0,0,0,0,0,0,0
108,1,1,288,163,652,5,13021,-74.2050178,4.7069867,"Cl. 15a # 2C-34, Funza, Cundinamarca, Colombia",ROOFTOP,234228,2aa330b5-f288-4dde-b72d-f7cd681b6693,210030,users_produccion_jardines109@yopmail.com,0,0,0,0,0,0,0,0,0,0,0,0,0,0,0,0,0,0,0,0,0,0,0
109,1,1,289,164,653,1,13046,-74.1892979,4.6923865,"Tv. 1 #1-06, Mosquera, Cundinamarca, Colombia",ROOFTOP,234229,2f497406-6db3-4c62-bbcd-2ba0143d6b7c,210031,users_produccion_jardines110@yopmail.com,0,0,0,0,0,0,0,0,0,0,0,0,0,0,0,0,0,0,0,0,0,0,0
110,1,1,290,165,657,4,13131,-74.175096,4.6920849,"Cl. 12 # 5-110, Mosquera, Cundinamarca, Colombia",ROOFTOP,234230,ee570fe4-6ae3-45d5-926c-fcd68ced87d9,210032,users_produccion_jardines111@yopmail.com,0,0,0,0,0,0,0,0,0,0,0,0,0,0,0,0,0,0,0,0,0,0,0
111,1,1,291,166,661,3,13215,-74.153122,4.6942389,"Cl. 22j # 123A-95, Fontibón, Bogotá, D.C., Bogotá, Bogotá, D.C., Colombia",ROOFTOP,234231,1ed0f751-3be6-4373-ad1b-e5def226e82e,210033,users_produccion_jardines112@yopmail.com,0,0,0,0,0,0,0,0,0,0,0,0,0,0,0,0,0,0,0,0,0,0,0
112,1,1,292,167,665,3,13295,-74.1382808,4.6932573,"Terminal De Carga #12, Bogotá, Colombia",ROOFTOP,234232,0073336c-d3f2-4479-9163-e7de169ad839,210034,users_produccion_jardines113@yopmail.com,0,0,0,0,0,0,0,0,0,0,0,0,0,0,0,0,0,0,0,0,0,0,0
113,1,1,293,168,670,2,13385,-74.114766,4.690435,"Cra. 94 # 65-46, Engativá, Bogotá, D.C., Bogotá, Bogotá, D.C., Colombia",ROOFTOP,234233,66c01335-53b6-4c56-a344-1a6e028b49a2,210035,users_produccion_jardines114@yopmail.com,0,0,0,0,0,0,0,0,0,0,0,0,0,0,0,0,0,0,0,0,0,0,0
114,1,1,294,169,673,5,13459,-74.0989267,4.6941134,"Cl. 74 Bis #78-10, Engativá, Bogotá, Cundinamarca, Colombia",ROOFTOP,234234,007eb54b-630f-49bc-a0e1-9d65b54ca572,210036,users_produccion_jardines115@yopmail.com,0,0,0,0,0,0,0,0,0,0,0,0,0,0,0,0,0,0,0,0,0,0,0
115,1,1,295,170,680,1,13589,-74.0801762,4.7026568,"Cra. 71g #117-50, Bogotá, Colombia",ROOFTOP,234235,ebb94a2f-9932-45fd-8512-93a051c29a1d,210037,users_produccion_jardines116@yopmail.com,0,0,0,0,0,0,0,0,0,0,0,0,0,0,0,0,0,0,0,0,0,0,0
116,1,1,296,171,682,2,13626,-74.0582331,4.6916748,"Cl. 104 # 46-20, Suba, Bogotá, D.C., Bogotá, Bogotá, D.C., Colombia",ROOFTOP,234236,db83ead8-4999-4bc5-b446-e693220b47eb,210038,users_produccion_jardines117@yopmail.com,0,0,0,0,0,0,0,0,0,0,0,0,0,0,0,0,0,0,0,0,0,0,0
117,1,1,297,172,685,1,13684,-74.0456881,4.6930683,"Cl. 109 #15-56, Usaquén, Bogotá, Colombia",ROOFTOP,234237,5033ecff-7acd-4d70-bcff-1160b6bb0828,210039,users_produccion_jardines118@yopmail.com,0,0,0,0,0,0,0,0,0,0,0,0,0,0,0,0,0,0,0,0,0,0,0
118,1,1,298,173,689,1,13761,-74.027986,4.6944584,"Cl. 119b # 4-80, Usaquén, Bogotá, D.C., Bogotá, Bogotá, D.C., Colombia",ROOFTOP,234238,2484b360-4f73-47c4-963b-8cce15ff3c01,210040,users_produccion_jardines119@yopmail.com,0,0,0,0,0,0,0,0,0,0,0,0,0,0,0,0,0,0,0,0,0,0,0
119,1,1,299,174,695,3,13897,-74.022129,4.703589,"Cra. 1a # 127B-80, Usaquén, Bogotá, D.C., Bogotá, Bogotá, D.C., Colombia",ROOFTOP,234239,4d1b1cb2-15c4-4f92-9cb0-a18ba2c37b09,210041,users_produccion_jardines120@yopmail.com,0,0,0,0,0,0,0,0,0,0,0,0,0,0,0,0,0,0,0,0,0,0,0
120,1,1,301,176,704,1,14076,-74.2864971,4.7254026,"Cra. 23 #10, Madrid, Cundinamarca, Colombia",ROOFTOP,234240,1f3e3d69-4c8e-4b18-af74-496d62b91873,210042,users_produccion_jardines121@yopmail.com,0,0,0,0,0,0,0,0,0,0,0,0,0,0,0,0,0,0,0,0,0,0,0
121,1,1,302,177,708,4,14158,-74.271263,4.723585,"Cra. 2 # 5 SUR-46, Madrid, Cundinamarca, Colombia",ROOFTOP,234241,3a3c73c2-6335-43ff-af11-4e7422cbc79e,210043,users_produccion_jardines122@yopmail.com,0,0,0,0,0,0,0,0,0,0,0,0,0,0,0,0,0,0,0,0,0,0,0
122,1,1,303,178,712,5,14228,-74.2533388,4.7203889,"Cl. 7 #1-02, Madrid, Cundinamarca, Colombia",ROOFTOP,234242,e107c12f-84ce-4fa9-bd62-19414a94a4c8,210044,users_produccion_jardines123@yopmail.com,0,0,0,0,0,0,0,0,0,0,0,0,0,0,0,0,0,0,0,0,0,0,0
123,1,1,305,180,718,2,14348,-74.221931,4.710277,"Cl. 15 #1135, Mosquera, Cundinamarca, Colombia",ROOFTOP,234243,045636b9-19e4-47e1-b3eb-03877b68d648,210045,users_produccion_jardines124@yopmail.com,0,0,0,0,0,0,0,0,0,0,0,0,0,0,0,0,0,0,0,0,0,0,0
124,1,1,306,181,721,5,14418,-74.2086549,4.712228,"Cl. 15 # 7B-55, Funza, Cundinamarca, Colombia",ROOFTOP,234244,ea402105-9b54-40fa-b765-53c0048841ee,210046,users_produccion_jardines125@yopmail.com,0,0,0,0,0,0,0,0,0,0,0,0,0,0,0,0,0,0,0,0,0,0,0
125,1,1,307,182,725,4,14492,-74.1943696,4.7129831,"Cl. 27 # 2C-5, Funza, Cundinamarca, Colombia",ROOFTOP,234245,57b2b72d-5502-4246-a5aa-346e86ab9bda,210047,users_produccion_jardines126@yopmail.com,0,0,0,0,0,0,0,0,0,0,0,0,0,0,0,0,0,0,0,0,0,0,0
126,1,1,309,184,736,1,14704,-74.1485154,4.7254093,"Cl 64 #128-98, Bogotá, Colombia",RANGE_INTERPOLATED,234246,e7cd75a1-7619-4334-bc64-5ff901c307e7,210048,users_produccion_jardines127@yopmail.com,0,0,0,0,0,0,0,0,0,0,0,0,0,0,0,0,0,0,0,0,0,0,0
127,1,1,310,185,740,5,14799,-74.1290702,4.7164965,"Cra. 114a #72f11, Bogotá, Colombia",ROOFTOP,234247,878cb139-b81d-4507-8fbd-ff1fba370e52,210049,users_produccion_jardines128@yopmail.com,0,0,0,0,0,0,0,0,0,0,0,0,0,0,0,0,0,0,0,0,0,0,0
128,1,1,311,186,742,1,14826,-74.1082015,4.7151644,"Cra. 101 #83-90, Engativá, Bogotá, Cundinamarca, Colombia",ROOFTOP,234248,2306a4cf-5d1a-4103-ac02-859997a796d3,210050,users_produccion_jardines129@yopmail.com,0,0,0,0,0,0,0,0,0,0,0,0,0,0,0,0,0,0,0,0,0,0,0
129,1,1,312,187,745,3,14887,-74.1039304,4.7109723,"Tv. 94 L #84-08, Bogotá, Colombia",ROOFTOP,234249,29459627-19ec-4b9c-9935-49b142d34199,210051,users_produccion_jardines130@yopmail.com,0,0,0,0,0,0,0,0,0,0,0,0,0,0,0,0,0,0,0,0,0,0,0
130,1,1,313,188,752,3,15027,-74.0761975,4.7217202,"Cra. 77 A #129-56, Bogotá, Colombia",ROOFTOP,234250,88a07b09-ddd2-4948-8309-693e44ba8668,210052,users_produccion_jardines131@yopmail.com,0,0,0,0,0,0,0,0,0,0,0,0,0,0,0,0,0,0,0,0,0,0,0
131,1,1,314,189,755,4,15093,-74.0661683,4.7176446,"Cl. 129a #56b-26, Bogotá, Colombia",ROOFTOP,234251,09532c2f-f3a8-48c8-a7d0-b5056049549c,210053,users_produccion_jardines132@yopmail.com,0,0,0,0,0,0,0,0,0,0,0,0,0,0,0,0,0,0,0,0,0,0,0
132,1,1,315,190,757,1,15121,-74.051304,4.711215,"Cl. 127b # 21-75, Usaquén, Bogotá, D.C., Bogotá, Bogotá, D.C., Colombia",ROOFTOP,234252,bebc1c5e-8133-45e1-b6f6-4180a3b3c7ad,210054,users_produccion_jardines133@yopmail.com,0,0,0,0,0,0,0,0,0,0,0,0,0,0,0,0,0,0,0,0,0,0,0
133,1,1,316,191,764,1,15264,-74.0253016,4.7219793,"Ak 7 #150-67, Bogotá, Colombia",ROOFTOP,234253,a679a428-2dcc-4b83-88a8-47851adc108f,210055,users_produccion_jardines134@yopmail.com,0,0,0,0,0,0,0,0,0,0,0,0,0,0,0,0,0,0,0,0,0,0,0
134,1,1,318,193,772,2,15431,-74.284813,4.7341338,"Fontana 3, Cl. 6 Sur #24- 180, Madrid, Cundinamarca, Colombia",ROOFTOP,234254,4d483c23-fb98-4db7-a219-8d29ef5b7c6e,210056,users_produccion_jardines135@yopmail.com,0,0,0,0,0,0,0,0,0,0,0,0,0,0,0,0,0,0,0,0,0,0,0
135,1,1,319,194,774,1,15467,-74.2713012,4.7341906,"Cl. 5 # 14B-37, La Pincha, Madrid, Cundinamarca, Colombia",ROOFTOP,234255,b260ea24-a96a-4d4a-a7c1-05733d2bfde8,210057,users_produccion_jardines136@yopmail.com,0,0,0,0,0,0,0,0,0,0,0,0,0,0,0,0,0,0,0,0,0,0,0
136,1,1,320,195,777,2,15537,-74.2665076,4.7273086,"Cl. 1b #247, Madrid, Cundinamarca, Colombia",ROOFTOP,234256,92941374-12a3-4d45-8a1b-16e08f39704d,210058,users_produccion_jardines137@yopmail.com,0,0,0,0,0,0,0,0,0,0,0,0,0,0,0,0,0,0,0,0,0,0,0
137,1,1,321,196,782,4,15623,-74.238876,4.7309481,"Via el Charquito #8a-194, Madrid, Cundinamarca, Colombia",RANGE_INTERPOLATED,234257,f87cfe38-8040-4256-afd4-a09a13965167,210059,users_produccion_jardines138@yopmail.com,0,0,0,0,0,0,0,0,0,0,0,0,0,0,0,0,0,0,0,0,0,0,0
138,1,1,322,197,786,3,15709,-74.2236874,4.7308215,"Cl. 12 # 30-12, Funza, Cundinamarca, Colombia",ROOFTOP,234258,c8790f2e-6aae-45e3-b229-7741201a966c,210060,users_produccion_jardines139@yopmail.com,0,0,0,0,0,0,0,0,0,0,0,0,0,0,0,0,0,0,0,0,0,0,0
139,1,1,324,199,796,5,15917,-74.1884639,4.7297143,"21 #222, Funza, Cundinamarca, Colombia",RANGE_INTERPOLATED,234259,e82e26eb-9ada-43f4-beba-a85d4a47088f,210061,users_produccion_jardines140@yopmail.com,0,0,0,0,0,0,0,0,0,0,0,0,0,0,0,0,0,0,0,0,0,0,0
140,1,1,326,201,802,3,16037,-74.1487449,4.7252839,"Cl 64 #128-95, Bogotá, Colombia",ROOFTOP,234260,525e99a7-e794-4526-860d-452d96111107,210062,users_produccion_jardines141@yopmail.com,0,0,0,0,0,0,0,0,0,0,0,0,0,0,0,0,0,0,0,0,0,0,0
141,1,1,327,202,808,4,16156,-74.1287035,4.7408114,"Cl. 133 #158-55, Bogotá, Colombia",ROOFTOP,234261,ff4a4867-633a-4664-b08e-63fe899126ec,210063,users_produccion_jardines142@yopmail.com,0,0,0,0,0,0,0,0,0,0,0,0,0,0,0,0,0,0,0,0,0,0,0
142,1,1,328,203,810,3,16193,-74.1158891,4.7317093,"Dg. 89b #117-20, Bogotá, Colombia",ROOFTOP,234262,848dfb9f-c82f-41c3-932a-2c0e744833c3,210064,users_produccion_jardines143@yopmail.com,0,0,0,0,0,0,0,0,0,0,0,0,0,0,0,0,0,0,0,0,0,0,0
143,1,1,329,204,815,4,16295,-74.1068831,4.7368354,"Cra. 123 #130c-95, Bogotá, Colombia",ROOFTOP,234263,70ef5c46-526b-497d-97f3-c74992fb09a9,210065,users_produccion_jardines144@yopmail.com,0,0,0,0,0,0,0,0,0,0,0,0,0,0,0,0,0,0,0,0,0,0,0
144,1,1,330,205,818,4,16350,-74.0756233,4.7330964,"Ac 145 #76-86, Suba, Bogotá, Colombia",ROOFTOP,234264,319ca89a-f744-4be1-b74c-3f4a0190482f,210066,users_produccion_jardines145@yopmail.com,0,0,0,0,0,0,0,0,0,0,0,0,0,0,0,0,0,0,0,0,0,0,0
145,1,1,331,206,824,5,16480,-74.060368,4.741983,"Cra. 57 #159-10, Bogotá, Colombia",ROOFTOP,234265,15bb87cb-eab2-47fc-9b74-f800172b1d7a,210067,users_produccion_jardines146@yopmail.com,0,0,0,0,0,0,0,0,0,0,0,0,0,0,0,0,0,0,0,0,0,0,0
146,1,1,332,207,828,3,16547,-74.0367368,4.7351561,"Cra. 14 Bis #155-60, Usaquén, Bogotá, Cundinamarca, Colombia",ROOFTOP,234266,5781684a-202e-4739-8b0c-4b29bc9f452c,210068,users_produccion_jardines147@yopmail.com,0,0,0,0,0,0,0,0,0,0,0,0,0,0,0,0,0,0,0,0,0,0,0
147,1,1,333,208,829,5,16579,-74.0274005,4.7269768,"Cra. 7c #151-34, Bogotá, Colombia",ROOFTOP,234267,2f9e81eb-ee77-471a-b314-f4ad9ac5dfcb,210069,users_produccion_jardines148@yopmail.com,0,0,0,0,0,0,0,0,0,0,0,0,0,0,0,0,0,0,0,0,0,0,0
148,1,1,334,209,835,3,16687,-74.014049,4.735828,"Cl. 163b # 2-53, Usaquén, Bogotá, D.C., Bogotá, Bogotá, D.C., Colombia",ROOFTOP,234268,43eed51c-5148-4c63-b8d7-43f61db8d66b,210070,users_produccion_jardines149@yopmail.com,0,0,0,0,0,0,0,0,0,0,0,0,0,0,0,0,0,0,0,0,0,0,0
149,1,1,335,210,837,5,16727,-74.2760638,4.7432723,"Cl. 5 #13-29, Madrid, Cundinamarca, Colombia",ROOFTOP,234269,a6349578-52a3-4662-b1a5-aec88ee97d8f,210071,users_produccion_jardines150@yopmail.com,0,0,0,0,0,0,0,0,0,0,0,0,0,0,0,0,0,0,0,0,0,0,0
150,1,1,340,215,858,1,17143,-74.124925,4.7484994,"Cra. 152 # 139B-23, Suba, Bogotá, D.C., Bogotá, Bogotá, D.C., Colombia",ROOFTOP,234270,a190f08c-7634-49c1-b409-61bba5e175fb,210072,users_produccion_jardines151@yopmail.com,0,0,0,0,0,0,0,0,0,0,0,0,0,0,0,0,0,0,0,0,0,0,0
151,1,1,341,216,861,2,17204,-74.120237,4.746988,"Cra. 149 Bis #138-2, Bogotá, Colombia",ROOFTOP,234271,2a2043e7-923f-4722-867e-03e9bb2cfa62,210073,users_produccion_jardines152@yopmail.com,0,0,0,0,0,0,0,0,0,0,0,0,0,0,0,0,0,0,0,0,0,0,0
152,1,1,342,217,865,5,17300,-74.10274,4.752084,"Cl. 148 # 114C-13, Suba, Bogotá, D.C., Bogotá, Bogotá, D.C., Colombia",ROOFTOP,234272,7bdc2110-7712-48c3-95de-51ccb8a0d281,210074,users_produccion_jardines153@yopmail.com,0,0,0,0,0,0,0,0,0,0,0,0,0,0,0,0,0,0,0,0,0,0,0
153,1,1,343,218,870,3,17392,-74.0785932,4.7518711,"Cra. 88 #152c-17, Bogotá, Colombia",ROOFTOP,234273,aa6ca944-20bc-4782-a32a-5e3a22504ff3,210075,users_produccion_jardines154@yopmail.com,0,0,0,0,0,0,0,0,0,0,0,0,0,0,0,0,0,0,0,0,0,0,0
154,1,1,344,219,874,3,17468,-74.0550144,4.7477322,"Cra 54C # 165-89, Suba, Bogotá, D.C., Bogotá, Bogotá, D.C., Colombia",ROOFTOP,234274,db317a3e-69be-4e40-b1c8-ada6c7f29ad1,210076,users_produccion_jardines155@yopmail.com,0,0,0,0,0,0,0,0,0,0,0,0,0,0,0,0,0,0,0,0,0,0,0
155,1,1,345,220,880,3,17588,-74.037459,4.7554595,"Cl. 175 #15 20, Bogotá, Colombia",ROOFTOP,234275,e54abc33-72e5-4b07-aa5d-87ba2c3bf8b9,210077,users_produccion_jardines156@yopmail.com,0,0,0,0,0,0,0,0,0,0,0,0,0,0,0,0,0,0,0,0,0,0,0
156,1,1,346,221,882,4,17637,-74.0261105,4.7452276,"Cl. 167d #8-58, Bogotá, Colombia",ROOFTOP,234276,b1244d19-e398-4b5c-9491-3134192cb678,210078,users_produccion_jardines157@yopmail.com,0,0,0,0,0,0,0,0,0,0,0,0,0,0,0,0,0,0,0,0,0,0,0
157,1,1,347,222,885,1,17681,-74.0176866,4.7444837,"Cra. 2b #167c-99, Bogotá, Colombia",RANGE_INTERPOLATED,234277,377cb23c-97b4-4f53-9b8b-5001896abcb3,210079,users_produccion_jardines158@yopmail.com,0,0,0,0,0,0,0,0,0,0,0,0,0,0,0,0,0,0,0,0,0,0,0
158,1,1,353,228,909,3,18171,-74.0818871,4.7697696,"Cl. 171 #103a-88, Bogotá, Colombia",RANGE_INTERPOLATED,234278,ed35b9e6-9ed6-4f09-bb9e-5607e0d5627b,210080,users_produccion_jardines159@yopmail.com,0,0,0,0,0,0,0,0,0,0,0,0,0,0,0,0,0,0,0,0,0,0,0
159,1,1,354,229,916,1,18304,-74.0559119,4.7762502,"Calle 145a #13a63, Bogotá, Colombia",ROOFTOP,234279,a7a5214c-a515-4b53-a096-b6d34159d6d4,210081,users_produccion_jardines160@yopmail.com,0,0,0,0,0,0,0,0,0,0,0,0,0,0,0,0,0,0,0,0,0,0,0
160,1,1,355,230,918,2,18349,-74.039516,4.763607,"Cl. 186b Bis #18A-23, Bogotá, Colombia",ROOFTOP,234280,85ec31fc-3a8d-4696-b776-30148a72ea64,210082,users_produccion_jardines161@yopmail.com,0,0,0,0,0,0,0,0,0,0,0,0,0,0,0,0,0,0,0,0,0,0,0
161,1,1,356,231,921,5,18413,-74.0295826,4.7694354,"Cra. 8b # 192-41, Usaquén, Bogotá, D.C., Bogotá, Bogotá, D.C., Colombia",ROOFTOP,234281,5c40bba7-5ae3-45e5-963f-c6bd0076c538,210083,users_produccion_jardines162@yopmail.com,0,0,0,0,0,0,0,0,0,0,0,0,0,0,0,0,0,0,0,0,0,0,0
162,1,1,363,238,950,2,18984,-74.0574462,4.7817934,"Calle 207 #70-50, Suba, Bogotá, Cundinamarca, Colombia",ROOFTOP,234282,0df79b48-9bf3-4330-9ae4-d20dc74a8444,210084,users_produccion_jardines163@yopmail.com,0,0,0,0,0,0,0,0,0,0,0,0,0,0,0,0,0,0,0,0,0,0,0
163,1,1,364,239,954,3,19073,-74.0416992,4.7846787,"Auto. Norte #20741, Bogotá, Colombia",ROOFTOP,234283,874e9c52-3a55-4afb-9ee8-c1e85c35daa3,210085,users_produccion_jardines164@yopmail.com,0,0,0,0,0,0,0,0,0,0,0,0,0,0,0,0,0,0,0,0,0,0,0
164,1,1,365,240,959,1,19165,-74.0304335,4.7945076,"Cra. 7 #218, Bogotá, Colombia",ROOFTOP,234284,ec46b3c1-dae9-4d44-af10-6d307e4a67fd,210086,users_produccion_jardines165@yopmail.com,0,0,0,0,0,0,0,0,0,0,0,0,0,0,0,0,0,0,0,0,0,0,0
165,1,1,369,244,976,5,19503,-74.1079011,4.8103276,"Cra. 9 #7-65, Cota, Cundinamarca, Colombia",ROOFTOP,234285,8fd49b39-fbea-408e-bc37-e49808f29c9e,210087,users_produccion_jardines166@yopmail.com,0,0,0,0,0,0,0,0,0,0,0,0,0,0,0,0,0,0,0,0,0,0,0
166,1,1,371,246,984,4,19661,-74.0759471,4.8097904,"Cl. 116 #221-94, Bogotá, Colombia",ROOFTOP,234286,e5ef767e-306e-4484-a3b9-49889a0b8da6,210088,users_produccion_jardines167@yopmail.com,0,0,0,0,0,0,0,0,0,0,0,0,0,0,0,0,0,0,0,0,0,0,0
167,1,1,373,248,992,3,19827,-74.0373897,4.8096627,"Cl. 235 #45-30, Bogotá, Colombia",ROOFTOP,234287,4f04c15a-a50b-4273-b356-5a388260ae15,210089,users_produccion_jardines168@yopmail.com,0,0,0,0,0,0,0,0,0,0,0,0,0,0,0,0,0,0,0,0,0,0,0
168,1,1,374,249,995,5,19894,-74.0278299,4.8131848,"Cra. 4 #237-99, Bogotá, Colombia",RANGE_INTERPOLATED,234288,5dd8aa69-c168-4cb7-8f32-83951f16ba61,210090,users_produccion_jardines169@yopmail.com,0,0,0,0,0,0,0,0,0,0,0,0,0,0,0,0,0,0,0,0,0,0,0
169,1,1,382,257,1027,3,20532,-74.051602,4.825756,"Cra. 77 # 239A-35, Suba, Bogotá, D.C., Bogotá, Bogotá, D.C., Colombia",ROOFTOP,234289,74f48506-4370-46c5-b17d-915f5b90d0ef,210091,users_produccion_jardines170@yopmail.com,0,0,0,0,0,0,0,0,0,0,0,0,0,0,0,0,0,0,0,0,0,0,0
170,1,1,383,258,1029,4,20576,-74.0353593,4.8231162,"Auto. Norte #245-91, Suba, Bogotá, Colombia",ROOFTOP,234290,69ee9bd0-7254-4b4e-9b2a-6a4bfabbd9d7,210092,users_produccion_jardines171@yopmail.com,0,0,0,0,0,0,0,0,0,0,0,0,0,0,0,0,0,0,0,0,0,0,0
171,1,1,388,263,1051,2,21009,-74.0503221,4.848866,"Cra. 1 #4-02, Chía, Cundinamarca, Colombia",ROOFTOP,234291,4b2dce03-8816-44cf-9eb3-fe6c3581a136,210093,users_produccion_jardines172@yopmail.com,0,0,0,0,0,0,0,0,0,0,0,0,0,0,0,0,0,0,0,0,0,0,0
172,1,1,392,267,1066,2,21305,-74.0608721,4.854595,"Cra. 8 #5A-50, Chía, Cundinamarca, Colombia",ROOFTOP,234292,2f2de250-cbff-456d-8509-8f8d093c6d03,210094,users_produccion_jardines173@yopmail.com,0,0,0,0,0,0,0,0,0,0,0,0,0,0,0,0,0,0,0,0,0,0,0
173,1,1,393,268,1071,3,21409,-74.0499428,4.8656627,"Cra. 3 #20-25, Chía, Cundinamarca, Colombia",ROOFTOP,234293,4e9ce9cb-5d2e-4159-af7c-aeb28bbafcba,210095,users_produccion_jardines174@yopmail.com,0,0,0,0,0,0,0,0,0,0,0,0,0,0,0,0,0,0,0,0,0,0,0
174,1,1,396,271,1082,1,21621,-74.0605276,4.8698749,"Cl. 19 # 14A-54, Chía, Cundinamarca, Colombia",ROOFTOP,234294,c36a15ac-8298-4232-8bea-bbfc3129785f,210096,users_produccion_jardines175@yopmail.com,0,0,0,0,0,0,0,0,0,0,0,0,0,0,0,0,0,0,0,0,0,0,0
175,1,1,404,279,1116,3,22318,-74.0384803,4.8988091,"Camino Ent. Fagua #10-40, El Tejar, Cajicá, Cundinamarca, Colombia",ROOFTOP,234295,839e52fa-1fcc-4648-a20b-80889d6ddd99,210097,users_produccion_jardines176@yopmail.com,0,0,0,0,0,0,0,0,0,0,0,0,0,0,0,0,0,0,0,0,0,0,0
176,1,1,405,280,1117,3,22336,-74.0335283,4.8929726,"Cajicá - Chía #27, Cajicá, Cundinamarca, Colombia",ROOFTOP,234296,3157e806-f3fe-4e51-a472-d872a0d6b30a,210098,users_produccion_jardines177@yopmail.com,0,0,0,0,0,0,0,0,0,0,0,0,0,0,0,0,0,0,0,0,0,0,0
177,1,1,410,285,1137,5,22727,-74.0448434,4.9119097,"Cam. de la Bajada al Molino #7, Cajicá, Cundinamarca, Colombia",ROOFTOP,234297,f808a864-ca7e-4d87-a482-f4a4ef678f12,210099,users_produccion_jardines178@yopmail.com,0,0,0,0,0,0,0,0,0,0,0,0,0,0,0,0,0,0,0,0,0,0,0
178,1,1,411,286,1142,1,22828,-74.020804,4.914499,"Cl. 1a # 3AE-39, Cajicá, Cundinamarca, Colombia",ROOFTOP,234298,568bcbdf-10d2-4c03-963f-3fd901d08109,210100,users_produccion_jardines179@yopmail.com,0,0,0,0,0,0,0,0,0,0,0,0,0,0,0,0,0,0,0,0,0,0,0
179,1,1,412,287,1145,2,22897,-74.0151924,4.9138582,"Huertas Oriental Etapa 1, Cra. 8 Este #1A - 21, Cajicá, Cundinamarca, Colombia",ROOFTOP,234299,52e1e57c-e6cd-4797-b409-a77fe8172f7d,210101,users_produccion_jardines180@yopmail.com,0,0,0,0,0,0,0,0,0,0,0,0,0,0,0,0,0,0,0,0,0,0,0
180,1,1,416,291,1162,3,23238,-74.037411,4.9302526,"Cam. de las Vueltas #11-34, Cajicá, Cundinamarca, Colombia",ROOFTOP,234300,6223a85f-07ef-4f57-bf20-e31afbc64ee6,210102,users_produccion_jardines181@yopmail.com,0,0,0,0,0,0,0,0,0,0,0,0,0,0,0,0,0,0,0,0,0,0,0
181,1,1,417,292,1165,3,23300,-74.0310609,4.9283979,"Carrera 13 # 10-65, Cajicá, Cundinamarca, Colombia",ROOFTOP,234301,7c02a325-55ce-4c82-b71f-de0187b353f0,210103,users_produccion_jardines182@yopmail.com,0,0,0,0,0,0,0,0,0,0,0,0,0,0,0,0,0,0,0,0,0,0,0
182,1,1,418,293,1169,4,23372,-74.0116678,4.9283189,"Cam. El Recreo #4791, Cajicá, Cundinamarca, Colombia",ROOFTOP,234302,b66d5ee9-f000-4ef0-87a5-6180e62759a6,210104,users_produccion_jardines183@yopmail.com,0,0,0,0,0,0,0,0,0,0,0,0,0,0,0,0,0,0,0,0,0,0,0
183,1,0,137,12,47,2,938,-74.0802567,4.4717447,"Cl. 138b Sur #21-40, Bogotá, Colombia",ROOFTOP,234303,105111a5-84c7-41ee-9515-b755de383480,210105,users_produccion_jardines184@yopmail.com,0,0,0,0,0,0,0,0,0,0,0,0,0,0,0,0,0,0,0,0,0,0,0
184,1,0,140,15,59,1,1171,-74.2569187,4.4842082,"Cra. 6 #5-5, Sibaté, Cundinamarca, Colombia",ROOFTOP,234304,0c2a1289-8a11-47b9-a1ef-497ac4e85591,210106,users_produccion_jardines185@yopmail.com,0,0,0,0,0,0,0,0,0,0,0,0,0,0,0,0,0,0,0,0,0,0,0
185,1,0,141,16,63,1,1253,-74.1489195,4.4867997,"Calle 2 Bis #14-67, Bogotá, Colombia",ROOFTOP,234305,9514bf4a-7990-4936-9fa0-6f803349cc09,210107,users_produccion_jardines186@yopmail.com,0,0,0,0,0,0,0,0,0,0,0,0,0,0,0,0,0,0,0,0,0,0,0
186,1,0,145,20,79,2,1579,-74.0857096,4.4844131,"Antigua Vía Al Llano #12, Bogotá, Colombia",ROOFTOP,234306,32a71668-b965-49e1-9585-4b83d5d9cd86,210108,users_produccion_jardines187@yopmail.com,0,0,0,0,0,0,0,0,0,0,0,0,0,0,0,0,0,0,0,0,0,0,0
187,1,0,146,21,83,3,1649,-74.0795838,4.4747753,"Cra. 24b Este #136c Sur-11, Bogotá, Colombia",RANGE_INTERPOLATED,234307,57dcc1bf-b22a-4a94-bf5f-fb30bc13d258,210109,users_produccion_jardines188@yopmail.com,0,0,0,0,0,0,0,0,0,0,0,0,0,0,0,0,0,0,0,0,0,0,0
188,1,0,149,24,95,2,1887,-74.2516925,4.4993269,"Sibate - Soacha #14-82, Sibaté, Cundinamarca, Colombia",ROOFTOP,234308,2e858a26-8a43-4f49-afb4-8377af8b8ecd,210110,users_produccion_jardines189@yopmail.com,0,0,0,0,0,0,0,0,0,0,0,0,0,0,0,0,0,0,0,0,0,0,0
189,1,0,152,27,106,1,2110,-74.1252517,4.495399,"Cra. 9 #100c Sur-88, Bogotá, Colombia",RANGE_INTERPOLATED,234309,dc788606-f2a7-45c1-9c45-42bdd2619816,210111,users_produccion_jardines190@yopmail.com,0,0,0,0,0,0,0,0,0,0,0,0,0,0,0,0,0,0,0,0,0,0,0
190,1,0,159,34,136,1,2701,-74.2396522,4.5169942,"Vía Sibate Vda. Chacua #28-82, Sibaté, Cundinamarca, Colombia",ROOFTOP,234310,5976e1ff-8ece-4b54-9e09-2298c240ebac,210112,users_produccion_jardines191@yopmail.com,0,0,0,0,0,0,0,0,0,0,0,0,0,0,0,0,0,0,0,0,0,0,0
191,1,0,162,37,145,1,2899,-74.1789284,4.5222124,"Calle 137c sur #3c-39, Cdad. Bolívar, Bogotá, Cundinamarca, Colombia",ROOFTOP,234311,3d833b76-c1ef-4f9c-9502-89658dcc6605,210113,users_produccion_jardines192@yopmail.com,0,0,0,0,0,0,0,0,0,0,0,0,0,0,0,0,0,0,0,0,0,0,0
192,1,0,163,38,150,2,2988,-74.148111,4.510328,"Cl. 89 Sur #18H-23, Bogotá, Colombia",ROOFTOP,234312,131d3294-064f-4e2f-bfd3-8072b4b39eee,210114,users_produccion_jardines193@yopmail.com,0,0,0,0,0,0,0,0,0,0,0,0,0,0,0,0,0,0,0,0,0,0,0
193,1,0,164,39,156,1,3113,-74.1252277,4.5212952,"Cl. 71 Sur #3a71, Bogotá, Colombia",ROOFTOP,234313,a1535e84-efa4-4436-8e41-7fdaf3217dba,210115,users_produccion_jardines194@yopmail.com,0,0,0,0,0,0,0,0,0,0,0,0,0,0,0,0,0,0,0,0,0,0,0
194,1,0,168,43,171,1,3414,-74.0800814,4.5357625,"Tv. 17 Este #46h Sur-84, Bogotá, Colombia",RANGE_INTERPOLATED,234314,c0af8ce1-e772-4863-bdf3-22ca61b4df54,210116,users_produccion_jardines195@yopmail.com,0,0,0,0,0,0,0,0,0,0,0,0,0,0,0,0,0,0,0,0,0,0,0
195,1,0,174,49,196,1,3915,-74.1639868,4.5414909,"Cra. 27a # 75B-46, Cdad. Bolívar, Bogotá, D.C., Bogotá, Bogotá, D.C., Colombia",ROOFTOP,234315,e68ccdd9-a8f5-48f3-ad35-12f61194e17e,210117,users_produccion_jardines196@yopmail.com,0,0,0,0,0,0,0,0,0,0,0,0,0,0,0,0,0,0,0,0,0,0,0
196,1,0,180,55,220,4,4398,-74.0782441,4.5434001,"Cra 18 E #42c Sur-63, Bogotá, Colombia",RANGE_INTERPOLATED,234316,36ee85aa-d2f8-473a-b5cb-b51afd92bbcc,210118,users_produccion_jardines197@yopmail.com,0,0,0,0,0,0,0,0,0,0,0,0,0,0,0,0,0,0,0,0,0,0,0
197,1,0,181,56,222,1,4438,-74.2442023,4.5584957,"Dg. 49 Sur #28 Sur-5, Soacha, Cundinamarca, Colombia",RANGE_INTERPOLATED,234317,7aad50e1-0792-40c7-9577-58cc02786256,210119,users_produccion_jardines198@yopmail.com,0,0,0,0,0,0,0,0,0,0,0,0,0,0,0,0,0,0,0,0,0,0,0
198,1,0,184,59,233,1,4644,-74.2107703,4.5469727,"Carrera 89a Bis #22a-1, Bogotá, Soacha, Cundinamarca, Colombia",ROOFTOP,234318,31e20d3b-797e-433f-a7ac-ecb8c3a2692a,210120,users_produccion_jardines199@yopmail.com,0,0,0,0,0,0,0,0,0,0,0,0,0,0,0,0,0,0,0,0,0,0,0
199,1,0,186,61,242,3,4838,-74.164102,4.547774,"Cra. 27m # 72C-24, Cdad. Bolívar, Bogotá, D.C., Bogotá, Bogotá, D.C., Colombia",ROOFTOP,234319,2ef80700-e583-4d54-b719-5dd02330d65a,210121,users_produccion_jardines200@yopmail.com,0,0,0,0,0,0,0,0,0,0,0,0,0,0,0,0,0,0,0,0,0,0,0
200,1,0,193,68,272,2,5440,-74.248003,4.5738732,"Cl. 37 Sur #13-04, Soacha, Cundinamarca, Colombia",ROOFTOP,234320,a99dde7b-ef23-45fe-b5f1-86570f73507b,210122,users_produccion_jardines201@yopmail.com,0,0,0,0,0,0,0,0,0,0,0,0,0,0,0,0,0,0,0,0,0,0,0
201,1,0,206,81,324,1,6461,-74.2337746,4.5900469,"Cl. 8 Sur #18, Soacha, Cundinamarca, Colombia",RANGE_INTERPOLATED,234321,f1fe7b03-eacb-4058-a300-01dee9ba68c7,210123,users_produccion_jardines202@yopmail.com,0,0,0,0,0,0,0,0,0,0,0,0,0,0,0,0,0,0,0,0,0,0,0
202,1,0,229,104,413,4,8250,-74.0589919,4.6006926,"Cra. 1 #20-65, Bogotá, Colombia",ROOFTOP,234322,4c264ddf-e6d1-459d-86b5-8fdbd4d7e4ab,210124,users_produccion_jardines203@yopmail.com,0,0,0,0,0,0,0,0,0,0,0,0,0,0,0,0,0,0,0,0,0,0,0
203,1,0,230,105,418,3,8347,-74.2259708,4.6115456,"Cra. 39 #13, Soacha, Cundinamarca, Colombia",RANGE_INTERPOLATED,234323,fdcd264c-c670-4fe0-bfa7-290c8b9efb1d,210125,users_produccion_jardines204@yopmail.com,0,0,0,0,0,0,0,0,0,0,0,0,0,0,0,0,0,0,0,0,0,0,0
204,1,0,243,118,469,1,9366,-74.2073541,4.6369047,"Cl. 74 Sur #74, Bogotá, Colombia",ROOFTOP,234324,a85202a4-546c-46aa-bd82-33c40b234ce2,210126,users_produccion_jardines205@yopmail.com,0,0,0,0,0,0,0,0,0,0,0,0,0,0,0,0,0,0,0,0,0,0,0
205,1,0,252,127,508,3,10155,-74.0480737,4.6507727,"Cl. 72A Bis #1-52e, Bogotá, Colombia",ROOFTOP,234325,2b5eaec4-28fc-4983-adea-0b8861c4f2c4,210127,users_produccion_jardines206@yopmail.com,0,0,0,0,0,0,0,0,0,0,0,0,0,0,0,0,0,0,0,0,0,0,0
206,1,0,253,128,511,2,10215,-74.008467,4.6622246,"Bogotá - La Calera #7, Bogotá, La Calera, Cundinamarca, Colombia",ROOFTOP,234326,85e35657-cc9d-443f-a6ae-89014c55fc89,210128,users_produccion_jardines207@yopmail.com,0,0,0,0,0,0,0,0,0,0,0,0,0,0,0,0,0,0,0,0,0,0,0
207,1,0,254,129,514,2,10265,-74.1957288,4.6543715,"Cl. 57c Sur #99b-70, Bogotá, Mosquera, Cundinamarca, Colombia",ROOFTOP,234327,5b05ee09-b9c2-4856-a9a5-447efa2dab36,210129,users_produccion_jardines208@yopmail.com,0,0,0,0,0,0,0,0,0,0,0,0,0,0,0,0,0,0,0,0,0,0,0
208,1,0,255,130,517,1,10324,-74.1957288,4.6543715,"Cl. 57c Sur #99b-70, Bogotá, Mosquera, Cundinamarca, Colombia",ROOFTOP,234328,135bc883-c866-4b19-902d-a9be0e92c679,210130,users_produccion_jardines209@yopmail.com,0,0,0,0,0,0,0,0,0,0,0,0,0,0,0,0,0,0,0,0,0,0,0
209,1,0,256,131,523,1,10457,-74.1762009,4.664004,"Carrera 79C #49, Bogotá, Colombia",ROOFTOP,234329,19f03a6a-bbea-417f-9093-82874c3029e1,210131,users_produccion_jardines210@yopmail.com,0,0,0,0,0,0,0,0,0,0,0,0,0,0,0,0,0,0,0,0,0,0,0
210,1,0,264,139,555,1,11094,-74.025415,4.664843,"Cra. 9 Este # 91-4, Chapinero, Bogotá, D.C., Bogotá, Bogotá, D.C., Colombia",ROOFTOP,234330,8ef647d2-11a3-4fd7-a81c-37ce127545ab,210132,users_produccion_jardines211@yopmail.com,0,0,0,0,0,0,0,0,0,0,0,0,0,0,0,0,0,0,0,0,0,0,0
211,1,0,266,141,561,2,11217,-73.9961566,4.669438,"Vda. el Chocolatero #14, La Calera, Cundinamarca, Colombia",ROOFTOP,234331,278b299a-4f06-4dbf-93bc-48f0ccd01cc0,210133,users_produccion_jardines212@yopmail.com,0,0,0,0,0,0,0,0,0,0,0,0,0,0,0,0,0,0,0,0,0,0,0
212,1,0,267,142,567,1,11321,-73.9825783,4.6751439,"Carrera 2 Este #5-3, La Calera, Cundinamarca, Colombia",ROOFTOP,234332,0fea0763-651b-420a-ab52-eca2e409fa17,210134,users_produccion_jardines213@yopmail.com,0,0,0,0,0,0,0,0,0,0,0,0,0,0,0,0,0,0,0,0,0,0,0
213,1,0,271,146,584,3,11677,-74.1993256,4.691643,"Cl. 1 #2-21, Mosquera, Cundinamarca, Colombia",ROOFTOP,234333,661391d0-22b6-4045-9aaa-f96669a6e583,210135,users_produccion_jardines214@yopmail.com,0,0,0,0,0,0,0,0,0,0,0,0,0,0,0,0,0,0,0,0,0,0,0
214,1,0,284,159,633,4,12648,-73.9825783,4.6751439,"Carrera 2 Este #5-3, La Calera, Cundinamarca, Colombia",ROOFTOP,234334,2cd824dc-df59-4f02-80fc-da68ef392f2b,210136,users_produccion_jardines215@yopmail.com,0,0,0,0,0,0,0,0,0,0,0,0,0,0,0,0,0,0,0,0,0,0,0
215,1,0,285,160,640,2,12786,-74.2512136,4.6998673,"Cra. 18 #16S-79, Mosquera, Cundinamarca, Colombia",ROOFTOP,234335,b3022211-e9b5-4502-99a1-8e93a764a65b,210137,users_produccion_jardines216@yopmail.com,0,0,0,0,0,0,0,0,0,0,0,0,0,0,0,0,0,0,0,0,0,0,0
216,1,0,286,161,642,1,12836,-74.2355578,4.6957116,"Cl. 17 S #6-22, Mosquera, Cundinamarca, Colombia",ROOFTOP,234336,dc3571a9-18ae-4bf8-9e9a-8528328476f7,210138,users_produccion_jardines217@yopmail.com,0,0,0,0,0,0,0,0,0,0,0,0,0,0,0,0,0,0,0,0,0,0,0
217,1,0,300,175,698,1,13946,-73.9886861,4.6808654,"Bogotá - La Calera #251207, El Salitre, La Paloma, La Calera, Cundinamarca, Colombia",ROOFTOP,234337,c101eed2-5415-47f8-abec-e700b8541757,210139,users_produccion_jardines218@yopmail.com,0,0,0,0,0,0,0,0,0,0,0,0,0,0,0,0,0,0,0,0,0,0,0
218,1,0,304,179,716,1,14315,-74.2343724,4.7195461,"Cl. 8 #15143, Mosquera, Cundinamarca, Colombia",ROOFTOP,234338,116bc3ae-6b37-403d-b84d-d19f458fc38a,210140,users_produccion_jardines219@yopmail.com,0,0,0,0,0,0,0,0,0,0,0,0,0,0,0,0,0,0,0,0,0,0,0
219,1,0,308,183,730,1,14583,-74.1631665,4.7023841,"Cra. 134 #22b-19, Bogotá, Colombia",RANGE_INTERPOLATED,234339,884070fc-f1f2-4b98-b926-466e8d410c58,210141,users_produccion_jardines220@yopmail.com,0,0,0,0,0,0,0,0,0,0,0,0,0,0,0,0,0,0,0,0,0,0,0
220,1,0,317,192,767,1,15324,-74.020954,4.723428,"Cl. 149 # 5-1, Usaquén, Bogotá, D.C., Bogotá, Bogotá, D.C., Colombia",ROOFTOP,234340,f8d74f64-eee3-43ed-8a2b-81c375926a26,210142,users_produccion_jardines221@yopmail.com,0,0,0,0,0,0,0,0,0,0,0,0,0,0,0,0,0,0,0,0,0,0,0
221,1,0,323,198,790,1,15787,-74.2019066,4.7322807,"Calle 45 b #68-15, Bogotá, Ceuta, Funza, Cundinamarca, Colombia",ROOFTOP,234341,89cdfaa8-f80a-4455-85b0-6b67daf6a655,210143,users_produccion_jardines222@yopmail.com,0,0,0,0,0,0,0,0,0,0,0,0,0,0,0,0,0,0,0,0,0,0,0
222,1,0,325,200,800,1,15981,-74.1649776,4.7321684,"Calle 7d #81b-03, Bogotá, Colombia",ROOFTOP,234342,165c8f4f-21df-4c05-84c1-b6caf100535c,210144,users_produccion_jardines223@yopmail.com,0,0,0,0,0,0,0,0,0,0,0,0,0,0,0,0,0,0,0,0,0,0,0
223,1,0,336,211,842,1,16839,-74.2564942,4.7476206,"Calle 6 #1-25, Madrid, El Riachuelo, Madrid, Cundinamarca, Colombia",ROOFTOP,234343,9786f168-df0b-4028-84af-239e601252a5,210145,users_produccion_jardines224@yopmail.com,0,0,0,0,0,0,0,0,0,0,0,0,0,0,0,0,0,0,0,0,0,0,0
224,1,0,337,212,845,2,16899,-74.2475308,4.7370329,"Cl 24 E #1, Madrid, Cundinamarca, Colombia",RANGE_INTERPOLATED,234344,4bf31c8c-7ee5-4f12-b93d-a6aba6e5d8dc,210146,users_produccion_jardines225@yopmail.com,0,0,0,0,0,0,0,0,0,0,0,0,0,0,0,0,0,0,0,0,0,0,0
225,1,0,339,214,854,1,17072,-74.2122726,4.7343257,"Cl. 15 # 24-11, Funza, Ceuta, Funza, Cundinamarca, Colombia",ROOFTOP,234345,281ca1f2-3b92-4e08-a2d7-667b3567a382,210147,users_produccion_jardines226@yopmail.com,0,0,0,0,0,0,0,0,0,0,0,0,0,0,0,0,0,0,0,0,0,0,0
226,1,0,350,225,898,1,17948,-74.1176078,4.7582948,"Dg. 151 #106, Bogotá, Colombia",ROOFTOP,234346,6d4f1f05-cfe4-415d-937a-5491d68e40f7,210148,users_produccion_jardines227@yopmail.com,0,0,0,0,0,0,0,0,0,0,0,0,0,0,0,0,0,0,0,0,0,0,0
227,1,0,351,226,902,1,18023,-74.1146852,4.7595894,"Dg. 151 #141A-55, Bogotá, Colombia",ROOFTOP,234347,9b23ae51-4eee-4f00-aea6-40928b37ed4c,210149,users_produccion_jardines228@yopmail.com,0,0,0,0,0,0,0,0,0,0,0,0,0,0,0,0,0,0,0,0,0,0,0
228,1,0,352,227,906,2,18114,-74.0972021,4.7598807,"Cra. 114 Bis #157-3, Bogotá, Colombia",ROOFTOP,234348,d1988ae9-7fe2-45cd-8d99-b01f7d1d0e12,210150,users_produccion_jardines229@yopmail.com,0,0,0,0,0,0,0,0,0,0,0,0,0,0,0,0,0,0,0,0,0,0,0
229,1,0,357,232,925,2,18499,-74.0142406,4.7601599,"Cl. 3 #17, Usaquén, Colombia",RANGE_INTERPOLATED,234349,da705908-f50f-4155-834f-6e491b7ef394,210151,users_produccion_jardines230@yopmail.com,0,0,0,0,0,0,0,0,0,0,0,0,0,0,0,0,0,0,0,0,0,0,0
230,1,0,360,235,939,2,18767,-74.1108281,4.7989293,"Vía Siberia #3, Funza, Bogotá, Colombia",ROOFTOP,234350,d60219a5-b0d7-4116-837e-aa4a0b93c438,210152,users_produccion_jardines231@yopmail.com,0,0,0,0,0,0,0,0,0,0,0,0,0,0,0,0,0,0,0,0,0,0,0
231,1,0,361,236,941,1,18814,-74.105741,4.7817767,"Cra. 135 #172-91, Bogotá, Colombia",ROOFTOP,234351,d47bcc26-7721-4618-a720-544a9f5e795a,210153,users_produccion_jardines232@yopmail.com,0,0,0,0,0,0,0,0,0,0,0,0,0,0,0,0,0,0,0,0,0,0,0
232,1,0,362,237,945,1,18895,-74.0843308,4.7791868,"Av. la Conejera #5, Suba, Cota, Bogotá, Colombia",ROOFTOP,234352,e5d766ef-47f5-4790-a646-15aac52670f9,210154,users_produccion_jardines233@yopmail.com,0,0,0,0,0,0,0,0,0,0,0,0,0,0,0,0,0,0,0,0,0,0,0
233,1,0,366,241,961,2,19210,-74.0280151,4.789995,"Cra. 7 #212-17, Bogotá, Colombia",RANGE_INTERPOLATED,234353,a4990114-5fb9-425b-b210-2a0dc7c68492,210155,users_produccion_jardines234@yopmail.com,0,0,0,0,0,0,0,0,0,0,0,0,0,0,0,0,0,0,0,0,0,0,0
234,1,0,370,245,978,2,19559,-74.0975309,4.8037995,"Cra. 1 #13-22, Cota, Cundinamarca, Colombia",ROOFTOP,234354,47c503c3-9035-4d02-8313-39ca5d49e59e,210156,users_produccion_jardines235@yopmail.com,0,0,0,0,0,0,0,0,0,0,0,0,0,0,0,0,0,0,0,0,0,0,0
235,1,0,372,247,986,1,19705,-74.0614876,4.8013071,"Cl. 221 #108-69, Bogotá, Colombia",ROOFTOP,234355,dfeceeae-ba13-40de-b45a-e1fb0805e90f,210157,users_produccion_jardines236@yopmail.com,0,0,0,0,0,0,0,0,0,0,0,0,0,0,0,0,0,0,0,0,0,0,0
236,1,0,375,250,998,1,19950,-74.0066294,4.8058577,"Floresta de la dabana, Cra. 7 #237 - 4, Bogotá, Colombia",ROOFTOP,234356,e6c0f915-0f5b-4b43-8b47-78eec3f5974e,210158,users_produccion_jardines237@yopmail.com,0,0,0,0,0,0,0,0,0,0,0,0,0,0,0,0,0,0,0,0,0,0,0
237,1,0,376,251,1001,1,20007,-74.0066294,4.8058577,"Floresta de la dabana, Cra. 7 #237 - 4, Bogotá, Colombia",ROOFTOP,234357,79c9f975-501b-49f7-8fb1-75acea18a8cd,210159,users_produccion_jardines238@yopmail.com,0,0,0,0,0,0,0,0,0,0,0,0,0,0,0,0,0,0,0,0,0,0,0
238,1,0,377,252,1008,2,20147,-73.9714931,4.801403,"Carrera 20 #22, Bogotá, Santa Isabel, La Calera, Cundinamarca, Colombia",ROOFTOP,234358,70d6f67a-aaeb-4645-b1d7-9965693eb8e2,210160,users_produccion_jardines239@yopmail.com,0,0,0,0,0,0,0,0,0,0,0,0,0,0,0,0,0,0,0,0,0,0,0
239,1,0,378,253,1010,1,20181,-74.1076485,4.817302,"Av. Libertador #10-79, Cota, Cundinamarca, Colombia",ROOFTOP,234359,2923f751-f507-4448-9da8-4f07fc316493,210161,users_produccion_jardines240@yopmail.com,0,0,0,0,0,0,0,0,0,0,0,0,0,0,0,0,0,0,0,0,0,0,0
240,1,0,379,254,1013,2,20242,-74.107234,4.8244007,"Carrera 6A #11-32, Cota, Cundinamarca, Colombia",ROOFTOP,234360,5cadde45-6221-469e-bbaa-7e353275bf3f,210162,users_produccion_jardines241@yopmail.com,0,0,0,0,0,0,0,0,0,0,0,0,0,0,0,0,0,0,0,0,0,0,0
241,1,0,380,255,1020,1,20382,-74.0803744,4.8318926,"Carrera 10 #1-64, Suba, Chía, Bogotá, Cundinamarca, Colombia",ROOFTOP,234361,e97c16a4-ec32-4a1a-a955-dc8ce1c97b6f,210163,users_produccion_jardines242@yopmail.com,0,0,0,0,0,0,0,0,0,0,0,0,0,0,0,0,0,0,0,0,0,0,0
242,1,0,381,256,1024,1,20470,-74.051602,4.825756,"Cra. 77 # 239A-35, Suba, Bogotá, D.C., Bogotá, Bogotá, D.C., Colombia",ROOFTOP,234362,156ca9ef-0e58-41ee-b76d-0b4c584c0a32,210164,users_produccion_jardines243@yopmail.com,0,0,0,0,0,0,0,0,0,0,0,0,0,0,0,0,0,0,0,0,0,0,0
243,1,0,384,259,1033,1,20659,-74.0245539,4.8122686,"Cra. 2a #235a-99, Bogotá, Colombia",RANGE_INTERPOLATED,234363,0bba0407-70d1-42fc-9e5d-955c8f894c59,210165,users_produccion_jardines244@yopmail.com,0,0,0,0,0,0,0,0,0,0,0,0,0,0,0,0,0,0,0,0,0,0,0
244,1,0,386,261,1041,1,20815,-74.0803744,4.8318926,"Carrera 10 #1-64, Suba, Chía, Bogotá, Cundinamarca, Colombia",ROOFTOP,234364,0039b30e-b4a1-431e-8464-8437c21edd36,210166,users_produccion_jardines245@yopmail.com,0,0,0,0,0,0,0,0,0,0,0,0,0,0,0,0,0,0,0,0,0,0,0
245,1,0,387,262,1045,2,20898,-74.0684852,4.8414269,"Cl. 10 Sur #10-25, Chía, Cundinamarca, Colombia",ROOFTOP,234365,11d3fa59-5196-4850-891b-50c42a67a70c,210167,users_produccion_jardines246@yopmail.com,0,0,0,0,0,0,0,0,0,0,0,0,0,0,0,0,0,0,0,0,0,0,0
246,1,0,389,264,1056,2,21112,-74.0273008,4.8443702,"Cra. 7 #1, Chía, Cundinamarca, Colombia",ROOFTOP,234366,78a891db-7869-4f9a-8a7d-0feb4cc770f9,210168,users_produccion_jardines247@yopmail.com,0,0,0,0,0,0,0,0,0,0,0,0,0,0,0,0,0,0,0,0,0,0,0
247,1,0,391,266,1062,1,21238,-74.072157,4.857535,"Cra. 13 #157-40, Bogotá, Chía, Cundinamarca, Colombia",ROOFTOP,234367,8c7e6928-d105-4c67-9fd3-48a97626374e,210169,users_produccion_jardines248@yopmail.com,0,0,0,0,0,0,0,0,0,0,0,0,0,0,0,0,0,0,0,0,0,0,0
248,1,0,394,269,1076,1,21503,-74.0238154,4.8665792,"Bogotá ‎-La Caro #12, Chía, Cundinamarca, Colombia",ROOFTOP,234368,c4b13a4f-3ab9-4170-9d8b-b52ef1c92200,210170,users_produccion_jardines249@yopmail.com,0,0,0,0,0,0,0,0,0,0,0,0,0,0,0,0,0,0,0,0,0,0,0
249,1,0,397,272,1087,2,21736,-74.0462778,4.8819811,"Cra. 9 #31-30, Chía, Cundinamarca, Colombia",ROOFTOP,234369,bd7ab06c-1335-4e97-b2a9-450625e8f957,210171,users_produccion_jardines250@yopmail.com,0,0,0,0,0,0,0,0,0,0,0,0,0,0,0,0,0,0,0,0,0,0,0
250,1,0,399,274,1094,1,21870,-74.0102932,4.8746216,"Vía de los Sauces #50, Chía, Cundinamarca, Colombia",ROOFTOP,234370,20ccc600-1d7a-49e1-bc9f-2d547f60c8c4,210172,users_produccion_jardines251@yopmail.com,0,0,0,0,0,0,0,0,0,0,0,0,0,0,0,0,0,0,0,0,0,0,0
251,1,0,402,277,1106,1,22110,-74.0652151,4.8882945,"Calle 6a Este #2b-45, Chía, Cundinamarca, Colombia",ROOFTOP,234371,42e40868-b7e2-4d31-bca6-3a56677f107d,210173,users_produccion_jardines252@yopmail.com,0,0,0,0,0,0,0,0,0,0,0,0,0,0,0,0,0,0,0,0,0,0,0
252,1,0,403,278,1112,1,22224,-74.0553659,4.8992268,"Finca la Victoria Finca la Victoria, sector el chamizo, Calle 42 #17-11, Chía, Cundinamarca, Colombia",ROOFTOP,234372,fbc4448a-85e4-4724-9e10-1898f6f1e930,210174,users_produccion_jardines253@yopmail.com,0,0,0,0,0,0,0,0,0,0,0,0,0,0,0,0,0,0,0,0,0,0,0
253,1,0,407,282,1125,3,22484,-73.995887,4.8935854,"Encenillos de Sindamanoy #26, Chía, Cundinamarca, Colombia",RANGE_INTERPOLATED,234373,3f7f4ca7-0374-4e3c-8774-70c1bde7f105,210175,users_produccion_jardines254@yopmail.com,0,0,0,0,0,0,0,0,0,0,0,0,0,0,0,0,0,0,0,0,0,0,0
254,1,0,409,284,1133,1,22644,-74.0586299,4.9070354,"Calle 11 sur #14C-422, Cajicá, Cundinamarca, Colombia",ROOFTOP,234374,6c1505db-965f-45c0-8be3-844a24ed61fe,210176,users_produccion_jardines255@yopmail.com,0,0,0,0,0,0,0,0,0,0,0,0,0,0,0,0,0,0,0,0,0,0,0
255,1,0,415,290,1158,1,23146,-74.0475275,4.925799,"Cajica-Tabio #65, Cajicá, Cundinamarca, Colombia",RANGE_INTERPOLATED,234375,f673d906-d803-4543-b0b6-2b78d1b1faf1,210177,users_produccion_jardines256@yopmail.com,0,0,0,0,0,0,0,0,0,0,0,0,0,0,0,0,0,0,0,0,0,0,0
256,1,0,421,296,1182,2,23630,-74.0245599,4.940233,"Cra. 6 # 2-127, Cajicá, Cundinamarca, Colombia",ROOFTOP,234376,620f98d0-77dc-4f8d-84c4-21d821ad01c8,210178,users_produccion_jardines257@yopmail.com,0,0,0,0,0,0,0,0,0,0,0,0,0,0,0,0,0,0,0,0,0,0,0
257,1,0,422,297,1185,4,23698,-74.019448,4.9380095,"Cl. 23 #6-184, Cajicá, Cundinamarca, Colombia",ROOFTOP,234377,885722d6-0563-4e84-ab6e-fd944088ad9d,210179,users_produccion_jardines258@yopmail.com,0,0,0,0,0,0,0,0,0,0,0,0,0,0,0,0,0,0,0,0,0,0,0
258,2,1,133,8,32,5,631,-74.1263118,4.4672213,"Cl. 138a Sur #1-2, Bogotá, Colombia",RANGE_INTERPOLATED,234378,28a0b6e9-b935-4f26-a8dd-41d4f93b417d,210180,users_produccion_jardines259@yopmail.com,0,0,0,0,0,0,0,0,0,0,0,0,0,0,0,0,0,0,0,0,0,0,0
259,2,1,134,9,35,2,688,-74.119992,4.473208,"Dg. 134a Sur #12A-20, Bogotá, Colombia",ROOFTOP,234379,68f6bf78-27b6-452b-9277-3f16c9f4d3d5,210181,users_produccion_jardines260@yopmail.com,0,0,0,0,0,0,0,0,0,0,0,0,0,0,0,0,0,0,0,0,0,0,0
260,2,1,136,11,43,4,843,-74.0837951,4.4742343,"Antigua Vía Al Llano #2, Bogotá, Colombia",ROOFTOP,234380,48eed7c5-c143-44d3-b839-fdd2ef25f140,210182,users_produccion_jardines261@yopmail.com,0,0,0,0,0,0,0,0,0,0,0,0,0,0,0,0,0,0,0,0,0,0,0
261,2,1,138,13,50,5,996,-74.2666594,4.4849304,"Cra. 8 #4-1, Sibaté, Cundinamarca, Colombia",ROOFTOP,234381,64add468-5fc7-4150-9ea2-42f91e449c46,210183,users_produccion_jardines262@yopmail.com,0,0,0,0,0,0,0,0,0,0,0,0,0,0,0,0,0,0,0,0,0,0,0
262,2,1,139,14,55,5,1097,-74.2632211,4.4902005,"Cra. 9 #9a35, Sibaté, Cundinamarca, Colombia",ROOFTOP,234382,099359f4-dc55-449c-8f55-4d823fdd6104,210184,users_produccion_jardines263@yopmail.com,0,0,0,0,0,0,0,0,0,0,0,0,0,0,0,0,0,0,0,0,0,0,0
263,2,1,142,17,66,2,1305,-74.1303987,4.4723768,"Cl. 139 Sur #3c40, Bogotá, Colombia",ROOFTOP,234383,2c8ce571-a462-4eb1-a233-9e7c5e908734,210185,users_produccion_jardines264@yopmail.com,0,0,0,0,0,0,0,0,0,0,0,0,0,0,0,0,0,0,0,0,0,0,0
264,2,1,144,19,75,4,1493,-74.101664,4.488017,"Cl. 117 Sur # 7C-15, Usme, Bogotá, D.C., Bogotá, Bogotá, D.C., Colombia",ROOFTOP,234384,8465cae6-9d84-46d9-8471-ad4932c72302,210186,users_produccion_jardines265@yopmail.com,0,0,0,0,0,0,0,0,0,0,0,0,0,0,0,0,0,0,0,0,0,0,0
265,2,1,147,22,86,2,1706,-74.2716664,4.4973769,"Vía Vda. la Union #57, Sibaté, Cundinamarca, Colombia",ROOFTOP,234385,6907374e-cc20-41c7-bc76-97f64b218616,210187,users_produccion_jardines266@yopmail.com,0,0,0,0,0,0,0,0,0,0,0,0,0,0,0,0,0,0,0,0,0,0,0
266,2,1,148,23,92,4,1837,-74.2533262,4.4998031,"Sibate - Soacha #14-82, Sibaté, Cundinamarca, Colombia",ROOFTOP,234386,8c6109d7-ee40-4c43-81d9-be5b348232fa,210188,users_produccion_jardines267@yopmail.com,0,0,0,0,0,0,0,0,0,0,0,0,0,0,0,0,0,0,0,0,0,0,0
267,2,1,153,28,112,5,2239,-74.115578,4.505453,"Cl. 92a Sur # 14-73, Usme, Bogotá, D.C., Bogotá, Bogotá, D.C., Colombia",ROOFTOP,234387,c2f3fc4d-b46f-46c2-9157-5b690bd74896,210189,users_produccion_jardines268@yopmail.com,0,0,0,0,0,0,0,0,0,0,0,0,0,0,0,0,0,0,0,0,0,0,0
268,2,1,154,29,114,5,2273,-74.090043,4.497976,"Carrera 12Fe # 90D-25, Usme, Bogotá, D.C., Bogotá, Bogotá, D.C., Colombia",ROOFTOP,234388,bd3c6d8a-416b-440e-a9d3-183a7b6221b5,210190,users_produccion_jardines269@yopmail.com,0,0,0,0,0,0,0,0,0,0,0,0,0,0,0,0,0,0,0,0,0,0,0
269,2,1,156,31,121,5,2409,-74.0767794,4.4989652,"Cl. 90 Bis Sur #24 Este-66, Bogotá, Colombia",RANGE_INTERPOLATED,234389,356b4aed-8339-4755-a6e4-0776fe8bb743,210191,users_produccion_jardines270@yopmail.com,0,0,0,0,0,0,0,0,0,0,0,0,0,0,0,0,0,0,0,0,0,0,0
270,2,1,165,40,157,5,3137,-74.1190979,4.516197,"Cl. 73d Bis Sur # 14H-15, Usme, Bogotá, D.C., Bogotá, Bogotá, D.C., Colombia",ROOFTOP,234390,bb004178-111a-405e-94ed-2a5bf2c99281,210192,users_produccion_jardines271@yopmail.com,0,0,0,0,0,0,0,0,0,0,0,0,0,0,0,0,0,0,0,0,0,0,0
271,2,1,166,41,162,5,3232,-74.0933922,4.5169383,"Carrera 13Ae # 74-59, Usme, Bogotá, D.C., Bogotá, Bogotá, D.C., Colombia",ROOFTOP,234391,5294e8bd-fd0d-4662-8db2-b46d33237f7b,210193,users_produccion_jardines272@yopmail.com,0,0,0,0,0,0,0,0,0,0,0,0,0,0,0,0,0,0,0,0,0,0,0
272,2,1,167,42,167,4,3334,-74.08891,4.516957,"Cl. 74a Sur #15B-7, Bogotá, Colombia",ROOFTOP,234392,37081127-ab6a-4365-acbc-54196f2a361c,210194,users_produccion_jardines273@yopmail.com,0,0,0,0,0,0,0,0,0,0,0,0,0,0,0,0,0,0,0,0,0,0,0
273,2,1,170,45,178,4,3557,-74.237773,4.528347,"Cra. 17 # 2-30, Sibaté, Cundinamarca, Colombia",ROOFTOP,234393,193b6066-3198-4a27-bdff-62632f9527c9,210195,users_produccion_jardines274@yopmail.com,0,0,0,0,0,0,0,0,0,0,0,0,0,0,0,0,0,0,0,0,0,0,0
274,2,1,176,51,202,3,4028,-74.1338385,4.5364955,"Cl. 78a Sur #14-21, Bogotá, Colombia",ROOFTOP,234394,dee6545d-e5b6-4b5a-b9cc-a7c1f7c5fea9,210196,users_produccion_jardines275@yopmail.com,0,0,0,0,0,0,0,0,0,0,0,0,0,0,0,0,0,0,0,0,0,0,0
275,2,1,177,52,205,1,4085,-74.119292,4.5276949,"Cra. 1c Este # 67D-50, Usme, Bogotá, D.C., Bogotá, Bogotá, D.C., Colombia",ROOFTOP,234395,ba423d2b-95a0-4a29-9292-282292b0a24e,210197,users_produccion_jardines276@yopmail.com,0,0,0,0,0,0,0,0,0,0,0,0,0,0,0,0,0,0,0,0,0,0,0
276,2,1,178,53,210,4,4195,-74.094589,4.531206,"Cl. 65 A Sur # 4B-52, San Cristóbal, Bogotá, D.C., Bogotá, Bogotá, D.C., Colombia",ROOFTOP,234396,952263d3-25ad-4ca6-9d15-318c6f18446c,210198,users_produccion_jardines277@yopmail.com,0,0,0,0,0,0,0,0,0,0,0,0,0,0,0,0,0,0,0,0,0,0,0
277,2,1,179,54,213,5,4259,-74.084173,4.528823,"Cl. 61 Sur # 15D-60, San Cristóbal, Bogotá, D.C., Bogotá, Bogotá, D.C., Colombia",ROOFTOP,234397,35079258-895c-4e34-9860-b6a909b0fb15,210199,users_produccion_jardines278@yopmail.com,0,0,0,0,0,0,0,0,0,0,0,0,0,0,0,0,0,0,0,0,0,0,0
278,2,1,182,57,228,2,4552,-74.2421085,4.560692,"Cl. 23A Sur # 19-75, Soacha, Cundinamarca, Colombia",ROOFTOP,234398,65265ce9-431f-4e62-a146-4c1b1cbf571d,210200,users_produccion_jardines279@yopmail.com,0,0,0,0,0,0,0,0,0,0,0,0,0,0,0,0,0,0,0,0,0,0,0
279,2,1,183,58,231,1,4606,-74.2318579,4.5599665,"Cra. 4 #15 Sur-47, Soacha, Cundinamarca, Colombia",RANGE_INTERPOLATED,234399,1ce713ef-5c56-4171-863e-e8f1214c182a,210201,users_produccion_jardines280@yopmail.com,0,0,0,0,0,0,0,0,0,0,0,0,0,0,0,0,0,0,0,0,0,0,0
280,2,1,185,60,240,4,4788,-74.187208,4.564921,"Cl. 48 Sur # 46E-32, Soacha, Cundinamarca, Colombia",ROOFTOP,234400,c9c37ce2-0b7a-415f-8927-2d2c17e99db7,210202,users_produccion_jardines281@yopmail.com,0,0,0,0,0,0,0,0,0,0,0,0,0,0,0,0,0,0,0,0,0,0,0
281,2,1,187,62,245,3,4895,-74.1606659,4.5512776,"Cra. 27f # 71G-29, Cdad. Bolívar, Bogotá, D.C., Bogotá, Bogotá, D.C., Colombia",ROOFTOP,234401,46850a77-92fb-4f72-8f52-52aa4c51562c,210203,users_produccion_jardines282@yopmail.com,0,0,0,0,0,0,0,0,0,0,0,0,0,0,0,0,0,0,0,0,0,0,0
282,2,1,188,63,252,5,5038,-74.1340881,4.5590507,"Cra. 13F #60 Sur-18, Bogotá, Colombia",RANGE_INTERPOLATED,234402,60f2db34-bd85-4b2e-8196-d3d8f79018c4,210204,users_produccion_jardines283@yopmail.com,0,0,0,0,0,0,0,0,0,0,0,0,0,0,0,0,0,0,0,0,0,0,0
283,2,1,189,64,253,1,5044,-74.1212633,4.5505444,"Cl. 51 Sur #5d-52, Bogotá, Colombia",RANGE_INTERPOLATED,234403,442afc0f-2bb2-418c-993a-228847b19252,210205,users_produccion_jardines284@yopmail.com,0,0,0,0,0,0,0,0,0,0,0,0,0,0,0,0,0,0,0,0,0,0,0
284,2,1,190,65,258,5,5150,-74.0923521,4.5521302,"Cra. 6d # 38-16, San Cristóbal, Bogotá, D.C., Bogotá, Bogotá, D.C., Colombia",ROOFTOP,234404,0f087df8-7a47-485e-bb7e-7ab55b90b219,210206,users_produccion_jardines285@yopmail.com,0,0,0,0,0,0,0,0,0,0,0,0,0,0,0,0,0,0,0,0,0,0,0
285,2,1,191,66,264,3,5278,-74.08177,4.554644,"Transversal 12E # 36C-21, San Cristóbal, Bogotá, D.C., Bogotá, Bogotá, D.C., Colombia",ROOFTOP,234405,97919cb2-1a47-47b1-876d-f638efae5cde,210207,users_produccion_jardines286@yopmail.com,0,0,0,0,0,0,0,0,0,0,0,0,0,0,0,0,0,0,0,0,0,0,0
286,2,1,192,67,266,4,5311,-74.0679113,4.558323,"Cl. 27 Sur #23 Este-98, Bogotá, Colombia",RANGE_INTERPOLATED,234406,9190384a-c5c9-4020-b0a0-98174d27edbf,210208,users_produccion_jardines287@yopmail.com,0,0,0,0,0,0,0,0,0,0,0,0,0,0,0,0,0,0,0,0,0,0,0
287,2,1,194,69,274,3,5473,-74.2422103,4.5616517,"Dg. 30 Sur # 20-128, Soacha, Cundinamarca, Colombia",ROOFTOP,234407,7e3ae01c-8dd8-4bf1-bed4-64b5629f9f7a,210209,users_produccion_jardines288@yopmail.com,0,0,0,0,0,0,0,0,0,0,0,0,0,0,0,0,0,0,0,0,0,0,0
288,2,1,195,70,279,5,5577,-74.2257,4.5790107,"Cra. 5 #6a2, Soacha, Cundinamarca, Colombia",ROOFTOP,234408,a9ae7eb9-e83d-48cd-8353-033ec5065361,210210,users_produccion_jardines289@yopmail.com,0,0,0,0,0,0,0,0,0,0,0,0,0,0,0,0,0,0,0,0,0,0,0
289,2,1,196,71,283,5,5654,-74.2078529,4.573875,"Carrera 12E # 22A-19, Soacha, Cundinamarca, Colombia",ROOFTOP,234409,bd778b23-4519-42a6-a5c7-0454944e69a4,210211,users_produccion_jardines290@yopmail.com,0,0,0,0,0,0,0,0,0,0,0,0,0,0,0,0,0,0,0,0,0,0,0
290,2,1,197,72,287,1,5722,-74.1902974,4.5755007,"Cl. 48a # 30-81, Soacha, Cundinamarca, Colombia",ROOFTOP,234410,09e5bb24-c4d9-4016-b92a-569daa2bd294,210212,users_produccion_jardines291@yopmail.com,0,0,0,0,0,0,0,0,0,0,0,0,0,0,0,0,0,0,0,0,0,0,0
291,2,1,198,73,290,4,5796,-74.1658733,4.5688599,"Cra. 44a # 75-30, Cdad. Bolívar, Bogotá, D.C., Bogotá, Bogotá, D.C., Colombia",ROOFTOP,234411,f003f0ca-5e42-4baf-936d-c607f4c1eb4d,210213,users_produccion_jardines292@yopmail.com,0,0,0,0,0,0,0,0,0,0,0,0,0,0,0,0,0,0,0,0,0,0,0
292,2,1,199,74,293,3,5850,-74.155659,4.568004,"Cra. 36 # 69G-99, Cdad. Bolívar, Bogotá, D.C., Bogotá, Bogotá, D.C., Colombia",ROOFTOP,234412,57c1faa9-3129-44d4-8849-a4ee7fee0851,210214,users_produccion_jardines293@yopmail.com,0,0,0,0,0,0,0,0,0,0,0,0,0,0,0,0,0,0,0,0,0,0,0
293,2,1,200,75,300,4,5990,-74.1290197,4.5784766,"Kr 24 #47a-61Sur, Bogotá, Colombia",ROOFTOP,234413,40603bf5-482f-4156-81eb-faac8cdbc087,210215,users_produccion_jardines294@yopmail.com,0,0,0,0,0,0,0,0,0,0,0,0,0,0,0,0,0,0,0,0,0,0,0
294,2,1,201,76,302,3,6030,-74.1138169,4.568644,"Cl. 42B Sur # 12A-65, Rafael Uribe Uribe, Bogotá, D.C., Bogotá, Bogotá, D.C., Colombia",ROOFTOP,234414,97642498-0709-47d1-9511-f6d47b370933,210216,users_produccion_jardines295@yopmail.com,0,0,0,0,0,0,0,0,0,0,0,0,0,0,0,0,0,0,0,0,0,0,0
295,2,1,202,77,308,2,6149,-74.098022,4.5748774,"Cl. 24 Sur #10c-18, Bogotá, Colombia",ROOFTOP,234415,a98fd107-dc23-4ae3-b2ef-fcbf07a9857b,210217,users_produccion_jardines296@yopmail.com,0,0,0,0,0,0,0,0,0,0,0,0,0,0,0,0,0,0,0,0,0,0,0
296,2,1,203,78,311,2,6206,-74.0819087,4.5784696,"Cra. 3 #8-05, San Cristóbal, Bogotá, Colombia",ROOFTOP,234416,92e17501-8d18-47b3-99ce-8169c049ddfe,210218,users_produccion_jardines297@yopmail.com,0,0,0,0,0,0,0,0,0,0,0,0,0,0,0,0,0,0,0,0,0,0,0
297,2,1,204,79,315,5,6300,-74.0685525,4.5774065,"Cra. 13 Este #4 Sur-37, Bogotá, Colombia",RANGE_INTERPOLATED,234417,f3d13f50-9644-4c8b-8d0d-bd164fd1745d,210219,users_produccion_jardines298@yopmail.com,0,0,0,0,0,0,0,0,0,0,0,0,0,0,0,0,0,0,0,0,0,0,0
298,2,1,205,80,318,1,6344,-74.2483919,4.580222,"Cra. 16B # 7-64, Soacha, Cundinamarca, Colombia",ROOFTOP,234418,01e59a25-c2ae-4863-b795-807c2d240386,210220,users_produccion_jardines299@yopmail.com,0,0,0,0,0,0,0,0,0,0,0,0,0,0,0,0,0,0,0,0,0,0,0
299,2,1,206,81,322,2,6429,-74.2387339,4.579926,"Cl. 4b # 13-5, Soacha, Cundinamarca, Colombia",ROOFTOP,234419,1e8d20f7-257e-4b90-bfd4-58064c309494,210221,users_produccion_jardines300@yopmail.com,0,0,0,0,0,0,0,0,0,0,0,0,0,0,0,0,0,0,0,0,0,0,0
300,2,1,207,82,325,1,6481,-74.2313722,4.5873869,"Cl. 6C Sur #47, Soacha, Cundinamarca, Colombia",ROOFTOP,234420,ead2cf9c-74ef-4bcf-8ff6-a080db90df0e,210222,users_produccion_jardines301@yopmail.com,0,0,0,0,0,0,0,0,0,0,0,0,0,0,0,0,0,0,0,0,0,0,0
301,2,1,208,83,331,4,6612,-74.2076032,4.5925456,"Dg. 33 #94, Soacha, Cundinamarca, Colombia",ROOFTOP,234421,572622de-c18c-43e5-8e4a-2bd7adf94975,210223,users_produccion_jardines302@yopmail.com,0,0,0,0,0,0,0,0,0,0,0,0,0,0,0,0,0,0,0,0,0,0,0
302,2,1,209,84,335,5,6696,-74.1960582,4.5927431,"Cl 39A # 8-50, Soacha, Cundinamarca, Colombia",ROOFTOP,234422,1c18bceb-d8f1-4bc3-94b2-d094ae1abe59,210224,users_produccion_jardines303@yopmail.com,0,0,0,0,0,0,0,0,0,0,0,0,0,0,0,0,0,0,0,0,0,0,0
303,2,1,210,85,337,3,6736,-74.174367,4.585838,"Cl. 63c Sur #74C-87, Bogotá, Colombia",ROOFTOP,234423,b5545697-c20b-446b-8f07-6249e3159dd9,210225,users_produccion_jardines304@yopmail.com,0,0,0,0,0,0,0,0,0,0,0,0,0,0,0,0,0,0,0,0,0,0,0
304,2,1,211,86,344,1,6867,-74.1492671,4.590887,"Dg. 48 Sur # 61-67, Tunjuelito, Bogotá, D.C., Bogotá, Bogotá, D.C., Colombia",ROOFTOP,234424,5641cdea-3912-4023-9df6-9dbb7884dd15,210226,users_produccion_jardines305@yopmail.com,0,0,0,0,0,0,0,0,0,0,0,0,0,0,0,0,0,0,0,0,0,0,0
305,2,1,212,87,345,1,6883,-74.1402775,4.5828494,"Cra. 33A #53B-12, Bogotá, Colombia",ROOFTOP,234425,e81f913e-c2e5-444f-87ac-567952bdec73,210227,users_produccion_jardines306@yopmail.com,0,0,0,0,0,0,0,0,0,0,0,0,0,0,0,0,0,0,0,0,0,0,0
306,2,1,213,88,352,2,7024,-74.1155165,4.5976778,"Cra. 37 # 26-30, Puente Aranda, Bogotá, D.C., Bogotá, Bogotá, D.C., Colombia",ROOFTOP,234426,9333a8c7-283f-4b89-a8ac-7913de71adf7,210228,users_produccion_jardines307@yopmail.com,0,0,0,0,0,0,0,0,0,0,0,0,0,0,0,0,0,0,0,0,0,0,0
307,2,1,214,89,354,2,7069,-74.097657,4.582204,"Cra. 12D # 17-37, Antonio Nariño, Bogotá, D.C., Bogotá, Bogotá, D.C., Colombia",ROOFTOP,234427,9913d4fb-1dd7-4f34-9f37-eac8cf97cd87,210229,users_produccion_jardines308@yopmail.com,0,0,0,0,0,0,0,0,0,0,0,0,0,0,0,0,0,0,0,0,0,0,0
308,2,1,215,90,357,4,7133,-74.0844141,4.5877306,"Cra. 9 #133-56, San Cristóbal, Bogotá, Cundinamarca, Colombia",ROOFTOP,234428,8e6db786-acf9-4d42-91ea-570af89e63bb,210230,users_produccion_jardines309@yopmail.com,0,0,0,0,0,0,0,0,0,0,0,0,0,0,0,0,0,0,0,0,0,0,0
309,2,1,216,91,361,2,7208,-74.066191,4.5895536,"Cl. 9 Bis #7-20, Bogotá, Colombia",ROOFTOP,234429,b1bb5579-2d37-4646-b0b0-f4c875e797f7,210231,users_produccion_jardines310@yopmail.com,0,0,0,0,0,0,0,0,0,0,0,0,0,0,0,0,0,0,0,0,0,0,0
310,2,1,217,92,367,5,7336,-74.0589919,4.6006926,"Cra. 1 #20-65, Bogotá, Colombia",ROOFTOP,234430,da9320c1-6fd9-4745-b49f-b5fcfd2a8f8b,210232,users_produccion_jardines311@yopmail.com,0,0,0,0,0,0,0,0,0,0,0,0,0,0,0,0,0,0,0,0,0,0,0
311,2,1,218,93,372,5,7429,-74.2275405,4.6093835,"Tv. 40 #18-77, Soacha, Cundinamarca, Colombia",ROOFTOP,234431,01a8a03e-e077-413f-8293-a3d15bdda331,210233,users_produccion_jardines312@yopmail.com,0,0,0,0,0,0,0,0,0,0,0,0,0,0,0,0,0,0,0,0,0,0,0
312,2,1,219,94,374,1,7462,-74.2201612,4.6054693,"Cra. 36 #17-78, Soacha, Cundinamarca, Colombia",ROOFTOP,234432,19cd4d2e-9164-4adc-be29-ade32988b13b,210234,users_produccion_jardines313@yopmail.com,0,0,0,0,0,0,0,0,0,0,0,0,0,0,0,0,0,0,0,0,0,0,0
313,2,1,220,95,380,3,7586,-74.2016874,4.6139333,"Cra. 81h #75, Bogotá, Colombia",ROOFTOP,234433,73b085dd-b299-472d-a776-12e02a8d8fcf,210235,users_produccion_jardines314@yopmail.com,0,0,0,0,0,0,0,0,0,0,0,0,0,0,0,0,0,0,0,0,0,0,0
314,2,1,221,96,383,4,7657,-74.1894424,4.6129737,"Cl. 65f Sur #81I-16, Bogotá, Colombia",ROOFTOP,234434,4fbba99b-6c5b-4dab-b962-0de57adcb890,210236,users_produccion_jardines315@yopmail.com,0,0,0,0,0,0,0,0,0,0,0,0,0,0,0,0,0,0,0,0,0,0,0
315,2,1,222,97,388,1,7741,-74.1667545,4.6088537,"Cl. 55b Sur # 77T-13, Kennedy, Bogotá, D.C., Bogotá, Bogotá, D.C., Colombia",ROOFTOP,234435,e92cdce0-17ba-4ac8-94b1-ceee7c87d279,210237,users_produccion_jardines316@yopmail.com,0,0,0,0,0,0,0,0,0,0,0,0,0,0,0,0,0,0,0,0,0,0,0
316,2,1,223,98,391,1,7801,-74.159338,4.611624,"Cl. 42G Sur # 74A-55, Kennedy, Bogotá, D.C., Bogotá, Bogotá, D.C., Colombia",ROOFTOP,234436,ecfa53da-c6a1-45a2-8c8d-d742eb9be5d3,210238,users_produccion_jardines317@yopmail.com,0,0,0,0,0,0,0,0,0,0,0,0,0,0,0,0,0,0,0,0,0,0,0
317,2,1,224,99,395,1,7888,-74.1351444,4.6088479,"Cl. 34a Sur # 68G-80, Kennedy, Bogotá, D.C., Bogotá, Bogotá, D.C., Colombia",ROOFTOP,234437,3f7a729b-5069-4461-9c65-bb876e1e9e66,210239,users_produccion_jardines318@yopmail.com,0,0,0,0,0,0,0,0,0,0,0,0,0,0,0,0,0,0,0,0,0,0,0
318,2,1,225,100,399,1,7962,-74.120936,4.610869,"Dg. 16 Sur # 52A-4, Puente Aranda, Bogotá, D.C., Bogotá, Bogotá, D.C., Colombia",ROOFTOP,234438,61816ff3-bf9e-495f-9adc-7f6746e897a6,210240,users_produccion_jardines319@yopmail.com,0,0,0,0,0,0,0,0,0,0,0,0,0,0,0,0,0,0,0,0,0,0,0
319,2,1,226,101,403,3,8050,-74.1063117,4.6111591,"Cra 37b #51, Bogotá, Colombia",ROOFTOP,234439,b358c1cc-f81a-42d8-b1ec-d30a5c1d7e94,210241,users_produccion_jardines320@yopmail.com,0,0,0,0,0,0,0,0,0,0,0,0,0,0,0,0,0,0,0,0,0,0,0
320,2,1,227,102,406,5,8119,-74.0772057,4.6004861,"Cl. 12 #961, Bogotá, Colombia",ROOFTOP,234440,ac842ce1-aa91-4e2d-868b-eb805f3bbe04,210242,users_produccion_jardines321@yopmail.com,0,0,0,0,0,0,0,0,0,0,0,0,0,0,0,0,0,0,0,0,0,0,0
321,2,1,228,103,410,4,8197,-74.0610918,4.6029193,"Cra. 3 Este #26-85, Santa Fé, Bogotá, Colombia",ROOFTOP,234441,8326d8a7-47dd-444a-bf48-7475d77b060e,210243,users_produccion_jardines322@yopmail.com,0,0,0,0,0,0,0,0,0,0,0,0,0,0,0,0,0,0,0,0,0,0,0
322,2,1,232,107,428,5,8553,-74.2035447,4.6340051,"Cra. 98b # 71-49, Bosa, Bogotá, D.C., Bogotá, Bogotá, D.C., Colombia",ROOFTOP,234442,cec9c376-f3c7-45b8-a25f-ae594799a448,210244,users_produccion_jardines323@yopmail.com,0,0,0,0,0,0,0,0,0,0,0,0,0,0,0,0,0,0,0,0,0,0,0
323,2,1,233,108,431,3,8612,-74.191275,4.631284,"Cl. 57c Sur # 90B-62, Bosa, Bogotá, D.C., Bogotá, Bogotá, D.C., Colombia",ROOFTOP,234443,d4671c86-1b58-4425-9ab7-70983e41eb84,210245,users_produccion_jardines324@yopmail.com,0,0,0,0,0,0,0,0,0,0,0,0,0,0,0,0,0,0,0,0,0,0,0
324,2,1,234,109,434,4,8669,-74.1630243,4.6224516,"Avenida 80 # 42-18, Kennedy, Bogotá, D.C., Bogotá, Bogotá, D.C., Colombia",ROOFTOP,234444,5bd4d341-d405-48ff-808a-46f37825f123,210246,users_produccion_jardines325@yopmail.com,0,0,0,0,0,0,0,0,0,0,0,0,0,0,0,0,0,0,0,0,0,0,0
325,2,1,235,110,440,5,8799,-74.151321,4.628736,"Cl. 26 Sur #78p10, Bogotá, Colombia",ROOFTOP,234445,6f7a82c1-36ad-4afa-b7c2-c6c48e584d12,210247,users_produccion_jardines326@yopmail.com,0,0,0,0,0,0,0,0,0,0,0,0,0,0,0,0,0,0,0,0,0,0,0
326,2,1,236,111,443,5,8857,-74.1409283,4.629469,"Cra. 73 # 5B-39, Kennedy, Bogotá, D.C., Bogotá, Bogotá, D.C., Colombia",ROOFTOP,234446,f23227bf-a6db-488f-8343-e202d3b4a0cf,210248,users_produccion_jardines327@yopmail.com,0,0,0,0,0,0,0,0,0,0,0,0,0,0,0,0,0,0,0,0,0,0,0
327,2,1,237,112,446,2,8906,-74.1162031,4.6237517,"Cra. 56 #4g37, Bogotá, Colombia",ROOFTOP,234447,26d0ffae-ec1f-48a1-9923-5de12fc5ad2b,210249,users_produccion_jardines328@yopmail.com,0,0,0,0,0,0,0,0,0,0,0,0,0,0,0,0,0,0,0,0,0,0,0
328,2,1,238,113,452,3,9026,-74.0892848,4.6265736,"Cl. 23 #33-50, Teusaquillo, Bogotá, Colombia",ROOFTOP,234448,7b960784-decd-45cd-90c1-0e2fd6836a74,210250,users_produccion_jardines329@yopmail.com,0,0,0,0,0,0,0,0,0,0,0,0,0,0,0,0,0,0,0,0,0,0,0
329,2,1,239,114,456,4,9106,-74.0798714,4.6278207,"Cl. 39 Bis A #29-49, Bogotá, Colombia",ROOFTOP,234449,4971b0d6-27b4-420c-be3a-9d44b0f28d0d,210251,users_produccion_jardines330@yopmail.com,0,0,0,0,0,0,0,0,0,0,0,0,0,0,0,0,0,0,0,0,0,0,0
330,2,1,240,115,460,4,9196,-74.057352,4.631172,"Carrera 4Ae #45D-2, Bogotá, D.C, Bogotá, Colombia",ROOFTOP,234450,e0a3e68e-8d4b-4c33-b4bb-1eeac8af18b9,210252,users_produccion_jardines331@yopmail.com,0,0,0,0,0,0,0,0,0,0,0,0,0,0,0,0,0,0,0,0,0,0,0
331,2,1,243,118,470,5,9382,-74.1991461,4.6422675,"Cl. 59 Sur #106a-31, Bogotá, Colombia",RANGE_INTERPOLATED,234451,1c9abb63-44a4-498f-a108-d387598afc13,210253,users_produccion_jardines332@yopmail.com,0,0,0,0,0,0,0,0,0,0,0,0,0,0,0,0,0,0,0,0,0,0,0
332,2,1,244,119,474,3,9467,-74.185262,4.642476,"Cra. 98b # 49C-1, Bosa, Bogotá, D.C., Bogotá, Bogotá, D.C., Colombia",ROOFTOP,234452,6cd1410e-050e-4ca2-80f8-8b4db58623f7,210254,users_produccion_jardines333@yopmail.com,0,0,0,0,0,0,0,0,0,0,0,0,0,0,0,0,0,0,0,0,0,0,0
333,2,1,245,120,479,3,9566,-74.177428,4.646648,"Cra. 98a Bis # 42A-13, Kennedy, Bogotá, D.C., Bogotá, Bogotá, D.C., Colombia",ROOFTOP,234453,9407f778-1365-41a8-bf06-5d3e578a283c,210255,users_produccion_jardines334@yopmail.com,0,0,0,0,0,0,0,0,0,0,0,0,0,0,0,0,0,0,0,0,0,0,0
334,2,1,246,121,484,1,9667,-74.1468489,4.6496457,"Av Ciudad de Cali #10-98, Bogotá, Colombia",ROOFTOP,234454,0de2bd02-6b5e-4741-868b-431414ef4330,210256,users_produccion_jardines335@yopmail.com,0,0,0,0,0,0,0,0,0,0,0,0,0,0,0,0,0,0,0,0,0,0,0
335,2,1,247,122,485,3,9696,-74.1380115,4.6416176,"Cra. 73B #9-90, Kennedy, Bogotá, Colombia",ROOFTOP,234455,461dcf09-68a6-4a33-85cd-6dbc1e168b9b,210257,users_produccion_jardines336@yopmail.com,0,0,0,0,0,0,0,0,0,0,0,0,0,0,0,0,0,0,0,0,0,0,0
336,2,1,248,123,492,4,9831,-74.115912,4.645034,"Cl. 19 # 68B-56, Fontibón, Bogotá, D.C., Bogotá, Bogotá, D.C., Colombia",ROOFTOP,234456,efaf3732-909f-4cd0-ad4f-1522001d52ae,210258,users_produccion_jardines337@yopmail.com,0,0,0,0,0,0,0,0,0,0,0,0,0,0,0,0,0,0,0,0,0,0,0
337,2,1,249,124,493,3,9844,-74.102061,4.6430239,"Cl. 24a # 58-40, Teusaquillo, Bogotá, D.C., Bogotá, Bogotá, D.C., Colombia",ROOFTOP,234457,e31041b8-69d3-4a12-ac9c-967f7a1d9a50,210259,users_produccion_jardines338@yopmail.com,0,0,0,0,0,0,0,0,0,0,0,0,0,0,0,0,0,0,0,0,0,0,0
338,2,1,250,125,500,3,9991,-74.0783226,4.6457892,"Ave Cra 30 #53b-57, Bogotá, Colombia",ROOFTOP,234458,99d68106-40fb-491f-b808-2722edfddb05,210260,users_produccion_jardines339@yopmail.com,0,0,0,0,0,0,0,0,0,0,0,0,0,0,0,0,0,0,0,0,0,0,0
339,2,1,251,126,501,4,10009,-74.06982,4.641502,"Cra. 18 # 53-31, Teusaquillo, Bogotá, D.C., Bogotá, Bogotá, D.C., Colombia",ROOFTOP,234459,989a9fdc-711a-422d-8f09-50d01dcc2da9,210261,users_produccion_jardines340@yopmail.com,0,0,0,0,0,0,0,0,0,0,0,0,0,0,0,0,0,0,0,0,0,0,0
340,2,1,252,127,505,4,10100,-74.052948,4.640536,"Tv. 5 Este # 58B-34, Chapinero, Bogotá, D.C., Bogotá, Bogotá, D.C., Colombia",ROOFTOP,234460,9aa64533-2efc-4192-b06d-fb13a4f27404,210262,users_produccion_jardines341@yopmail.com,0,0,0,0,0,0,0,0,0,0,0,0,0,0,0,0,0,0,0,0,0,0,0
341,2,1,257,132,527,5,10533,-74.1555491,4.6646107,"Cra. 98b #14-06, Fontibón, Bogotá, Colombia",ROOFTOP,234461,6b80938d-3599-4639-a990-7935b5e09ab4,210263,users_produccion_jardines342@yopmail.com,0,0,0,0,0,0,0,0,0,0,0,0,0,0,0,0,0,0,0,0,0,0,0
342,2,1,258,133,532,4,10636,-74.1309914,4.6657425,"Av. Ferrocarril de Occidente #86-6, Bogotá, Colombia",ROOFTOP,234462,f9f9da78-a5af-4b23-9884-93f64b2bad94,210264,users_produccion_jardines343@yopmail.com,0,0,0,0,0,0,0,0,0,0,0,0,0,0,0,0,0,0,0,0,0,0,0
343,2,1,259,134,535,2,10686,-74.1228409,4.666798,"Cl. 23d # 81A-11, Fontibón, Bogotá, D.C., Bogotá, Bogotá, D.C., Colombia",ROOFTOP,234463,9a5361fe-6f58-440e-9a82-92405fe642a2,210265,users_produccion_jardines344@yopmail.com,0,0,0,0,0,0,0,0,0,0,0,0,0,0,0,0,0,0,0,0,0,0,0
344,2,1,261,136,542,4,10830,-74.0766084,4.6559784,"Cra. 28a #63d-45, Bogotá, Colombia",ROOFTOP,234464,5a83532a-741f-45ce-a42a-2d832deb747b,210266,users_produccion_jardines345@yopmail.com,0,0,0,0,0,0,0,0,0,0,0,0,0,0,0,0,0,0,0,0,0,0,0
345,2,1,262,137,548,4,10956,-74.05793,4.6656403,"Cl. 79 #1532, Bogotá, Colombia",ROOFTOP,234465,1a3dfdad-ab5b-4669-bc36-c01279fa9e9b,210267,users_produccion_jardines346@yopmail.com,0,0,0,0,0,0,0,0,0,0,0,0,0,0,0,0,0,0,0,0,0,0,0
346,2,1,263,138,551,5,11018,-74.0462255,4.6621814,"Cra 1 Este # 83-46, Chapinero, Bogotá, D.C., Bogotá, Bogotá, D.C., Colombia",ROOFTOP,234466,6280888d-0302-445c-bc63-4178a3d2b472,210268,users_produccion_jardines347@yopmail.com,0,0,0,0,0,0,0,0,0,0,0,0,0,0,0,0,0,0,0,0,0,0,0
347,2,1,264,139,553,3,11041,-74.0249958,4.6630226,"Cl. 93 #12 Este-15, Bogotá, Colombia",RANGE_INTERPOLATED,234467,09953bbf-15c1-40a0-a720-41291bf99059,210269,users_produccion_jardines348@yopmail.com,0,0,0,0,0,0,0,0,0,0,0,0,0,0,0,0,0,0,0,0,0,0,0
348,2,1,265,140,558,2,11149,-74.0058929,4.6546464,"Ramal Kabalgar #13, La Calera, Cundinamarca, Colombia",ROOFTOP,234468,bc975971-bc26-41c1-b09a-45a7b1183d4c,210270,users_produccion_jardines349@yopmail.com,0,0,0,0,0,0,0,0,0,0,0,0,0,0,0,0,0,0,0,0,0,0,0
349,2,1,270,145,578,1,11548,-74.2190006,4.6861135,"Barrio el sol, Calle18 #10-05, Funza, Mosquera, Cundinamarca, Colombia",ROOFTOP,234469,e75a7953-fdb4-4c28-ad4a-2aca60b5a3b2,210271,users_produccion_jardines350@yopmail.com,0,0,0,0,0,0,0,0,0,0,0,0,0,0,0,0,0,0,0,0,0,0,0
350,2,1,273,148,589,2,11769,-74.1716623,4.677086,"Cra. 123 #13-06, Recodo, Bogotá, Cundinamarca, Colombia",ROOFTOP,234470,02ce1b04-6224-4eb2-810e-3e2509fa635f,210272,users_produccion_jardines351@yopmail.com,0,0,0,0,0,0,0,0,0,0,0,0,0,0,0,0,0,0,0,0,0,0,0
351,2,1,274,149,595,3,11894,-74.1582806,4.6856648,"Ac. 17 #119-46, Bogotá, Colombia",ROOFTOP,234471,59e2bcb2-c1b5-4c54-9f93-6f25bdc326b0,210273,users_produccion_jardines352@yopmail.com,0,0,0,0,0,0,0,0,0,0,0,0,0,0,0,0,0,0,0,0,0,0,0
352,2,1,275,150,599,5,11976,-74.1350802,4.6821966,"Avenida 24 # 101A-5, Fontibón, Bogotá, D.C., Bogotá, Bogotá, D.C., Colombia",ROOFTOP,234472,534ec417-58b1-419b-88bc-8ad6e1cd1fd4,210274,users_produccion_jardines353@yopmail.com,0,0,0,0,0,0,0,0,0,0,0,0,0,0,0,0,0,0,0,0,0,0,0
353,2,1,276,151,601,2,12005,-74.1215308,4.6771592,"Av Ciudad de Cali #25g10, Bogotá, Colombia",ROOFTOP,234473,d8c024d2-c0e1-4c71-b4b2-a98427a13bac,210275,users_produccion_jardines354@yopmail.com,0,0,0,0,0,0,0,0,0,0,0,0,0,0,0,0,0,0,0,0,0,0,0
354,2,1,277,152,606,5,12117,-74.09048,4.680153,"Cl. 70A #69-84, Bogotá, Colombia",ROOFTOP,234474,db41ccc7-630e-4fb1-9391-5a75c97bed83,210276,users_produccion_jardines355@yopmail.com,0,0,0,0,0,0,0,0,0,0,0,0,0,0,0,0,0,0,0,0,0,0,0
355,2,1,278,153,609,1,12162,-74.0839967,4.67634,"Cl. 72A #65b-35, Bogotá, Colombia",ROOFTOP,234475,14bbef19-33c2-466f-bcf4-1a874ad16082,210277,users_produccion_jardines356@yopmail.com,0,0,0,0,0,0,0,0,0,0,0,0,0,0,0,0,0,0,0,0,0,0,0
356,2,1,279,154,615,5,12298,-74.06644,4.682228,"Cl. 93a # 60-22, Barrios Unidos, Bogotá, D.C., Bogotá, Bogotá, D.C., Colombia",ROOFTOP,234476,2ea35141-ad84-4eb3-98de-9c6209a20ebc,210278,users_produccion_jardines357@yopmail.com,0,0,0,0,0,0,0,0,0,0,0,0,0,0,0,0,0,0,0,0,0,0,0
357,2,1,280,155,618,3,12345,-74.0403169,4.6738941,"Ak 7 #93A - 50, Bogotá, Colombia",ROOFTOP,234477,58da7255-8c5a-4fb4-9109-81fc78fee9fe,210279,users_produccion_jardines358@yopmail.com,0,0,0,0,0,0,0,0,0,0,0,0,0,0,0,0,0,0,0,0,0,0,0
358,2,1,282,157,625,2,12494,-74.0135721,4.6708959,"Bogotá - La Calera #5, Bogotá, Colombia",ROOFTOP,234478,5708c56e-af30-417d-b41f-e67dc5131d86,210280,users_produccion_jardines359@yopmail.com,0,0,0,0,0,0,0,0,0,0,0,0,0,0,0,0,0,0,0,0,0,0,0
359,2,1,283,158,630,3,12595,-73.9825783,4.6751439,"Carrera 2 Este #5-3, La Calera, Cundinamarca, Colombia",ROOFTOP,234479,519ce96c-5d82-4753-a448-fcc3cdec3113,210281,users_produccion_jardines360@yopmail.com,0,0,0,0,0,0,0,0,0,0,0,0,0,0,0,0,0,0,0,0,0,0,0
360,2,1,287,162,648,1,12956,-74.2192474,4.7040064,"Cl. 12 #7E-50, Mosquera, Cundinamarca, Colombia",ROOFTOP,234480,eab2f5a9-dfbc-4be2-ba1d-244d9c7450d8,210282,users_produccion_jardines361@yopmail.com,0,0,0,0,0,0,0,0,0,0,0,0,0,0,0,0,0,0,0,0,0,0,0
361,2,1,288,163,652,4,13029,-74.2065391,4.7028068,"Cl. 13 #2-43, Funza, Cundinamarca, Colombia",ROOFTOP,234481,2b7b65f6-918a-4a10-b604-819390482151,210283,users_produccion_jardines362@yopmail.com,0,0,0,0,0,0,0,0,0,0,0,0,0,0,0,0,0,0,0,0,0,0,0
362,2,1,289,164,656,3,13118,-74.1816914,4.6986492,"Cra. 16 # 18-46, Ceuta, Mosquera, Cundinamarca, Colombia",ROOFTOP,234482,3029e5eb-49da-44e8-a49a-314bfd81f5f8,210284,users_produccion_jardines363@yopmail.com,0,0,0,0,0,0,0,0,0,0,0,0,0,0,0,0,0,0,0,0,0,0,0
363,2,1,290,165,658,4,13156,-74.1689616,4.6973349,"Cl. 17b Bis #137a-26, Bogotá, Colombia",ROOFTOP,234483,eade010c-7840-47d3-9688-3fb2e2df20b6,210285,users_produccion_jardines364@yopmail.com,0,0,0,0,0,0,0,0,0,0,0,0,0,0,0,0,0,0,0,0,0,0,0
364,2,1,291,166,663,4,13254,-74.154657,4.697234,"Avenida 24 # 128-23, Fontibón, Bogotá, D.C., Bogotá, Bogotá, D.C., Colombia",ROOFTOP,234484,5d2c89d4-609a-477f-a102-d72170a44861,210286,users_produccion_jardines365@yopmail.com,0,0,0,0,0,0,0,0,0,0,0,0,0,0,0,0,0,0,0,0,0,0,0
365,2,1,292,167,668,1,13342,-74.126993,4.702613,"Cra. 107c # 67B-24, Engativá, Bogotá, D.C., Bogotá, Bogotá, D.C., Colombia",ROOFTOP,234485,9e457d65-21cc-4828-9d0d-8444f19ed698,210287,users_produccion_jardines366@yopmail.com,0,0,0,0,0,0,0,0,0,0,0,0,0,0,0,0,0,0,0,0,0,0,0
366,2,1,293,168,671,1,13405,-74.121849,4.70407,"Cl. 70 Bis # 105A-17, Engativá, Bogotá, D.C., Bogotá, Bogotá, D.C., Colombia",ROOFTOP,234486,9c71deda-5882-4447-8517-cd2cb82055a6,210288,users_produccion_jardines367@yopmail.com,0,0,0,0,0,0,0,0,0,0,0,0,0,0,0,0,0,0,0,0,0,0,0
367,2,1,294,169,673,1,13446,-74.1009102,4.6909017,"Cl. 71B #77a-54, Bogotá, Colombia",ROOFTOP,234487,9a7fe5b8-05af-490a-b94b-6b0f4fb13f60,210289,users_produccion_jardines368@yopmail.com,0,0,0,0,0,0,0,0,0,0,0,0,0,0,0,0,0,0,0,0,0,0,0
368,2,1,295,170,677,2,13523,-74.0809517,4.6968665,"Cl. 98b # 71A-45, Suba, Bogotá, D.C., Bogotá, Bogotá, D.C., Colombia",ROOFTOP,234488,537bac8a-dd3a-48a3-b0d9-5520f075f1f7,210290,users_produccion_jardines369@yopmail.com,0,0,0,0,0,0,0,0,0,0,0,0,0,0,0,0,0,0,0,0,0,0,0
369,2,1,296,171,682,5,13638,-74.0561084,4.6973796,"Cl. 111 #45-66, Bogotá, Colombia",ROOFTOP,234489,28758800-7464-47e4-942d-7e910bff42a9,210291,users_produccion_jardines370@yopmail.com,0,0,0,0,0,0,0,0,0,0,0,0,0,0,0,0,0,0,0,0,0,0,0
370,2,1,297,172,688,5,13757,-74.042733,4.7031643,"Cra. 15 #124-54, Bogotá, Colombia",RANGE_INTERPOLATED,234490,1204e944-4505-4f1c-b409-324c8ca929f9,210292,users_produccion_jardines371@yopmail.com,0,0,0,0,0,0,0,0,0,0,0,0,0,0,0,0,0,0,0,0,0,0,0
371,2,1,298,173,690,2,13785,-74.0256752,4.6941715,"Cra. 3a Este #119-1, Bogotá, Colombia",ROOFTOP,234491,efc8f873-b5fb-4d60-9ba8-bb8c82ca819f,210293,users_produccion_jardines372@yopmail.com,0,0,0,0,0,0,0,0,0,0,0,0,0,0,0,0,0,0,0,0,0,0,0
372,2,1,299,174,695,4,13886,-74.0235383,4.7025106,"Cl. 128 Bis #1-11, Bogotá, Colombia",ROOFTOP,234492,272f421c-c9fc-4b9a-aa02-3412d655a983,210294,users_produccion_jardines373@yopmail.com,0,0,0,0,0,0,0,0,0,0,0,0,0,0,0,0,0,0,0,0,0,0,0
373,2,1,301,176,704,5,14080,-74.2833228,4.7242064,"Cl. 10 Sur # 19-67, Madrid, Cundinamarca, Colombia",ROOFTOP,234493,d00541c7-349b-4ccd-89c8-a469ec293531,210295,users_produccion_jardines374@yopmail.com,0,0,0,0,0,0,0,0,0,0,0,0,0,0,0,0,0,0,0,0,0,0,0
374,2,1,303,178,712,4,14227,-74.258075,4.7256437,"Cl. 6 #1A-99, Madrid, Cundinamarca, Colombia",ROOFTOP,234494,f609e1a1-853d-4847-ba74-747afb489bd6,210296,users_produccion_jardines375@yopmail.com,0,0,0,0,0,0,0,0,0,0,0,0,0,0,0,0,0,0,0,0,0,0,0
375,2,1,304,179,714,5,14279,-74.2415362,4.7091188,"Hacienda Alcalá, Cl. 10 Sur #14-77, Mosquera, Cundinamarca, Colombia",ROOFTOP,234495,ebe67d95-2aee-41bb-a060-f613a6bcf2bb,210297,users_produccion_jardines376@yopmail.com,0,0,0,0,0,0,0,0,0,0,0,0,0,0,0,0,0,0,0,0,0,0,0
376,2,1,305,180,717,5,14339,-74.2248911,4.7114349,"Cra. 4 #1035, Mosquera, Cundinamarca, Colombia",ROOFTOP,234496,42088407-5058-4be7-920d-9f858bfc4d8f,210298,users_produccion_jardines377@yopmail.com,0,0,0,0,0,0,0,0,0,0,0,0,0,0,0,0,0,0,0,0,0,0,0
377,2,1,306,181,722,1,14427,-74.2008717,4.7104374,"Cra. 5 #08, Funza, Cundinamarca, Colombia",ROOFTOP,234497,f083238a-bbc0-4d21-964e-b24946813375,210299,users_produccion_jardines378@yopmail.com,0,0,0,0,0,0,0,0,0,0,0,0,0,0,0,0,0,0,0,0,0,0,0
378,2,1,307,182,725,2,14483,-74.1966793,4.7121074,"Cra. 5 #26-80, Funza, Cundinamarca, Colombia",ROOFTOP,234498,76893bbc-a801-44f0-ac99-440dc1498b0d,210300,users_produccion_jardines379@yopmail.com,0,0,0,0,0,0,0,0,0,0,0,0,0,0,0,0,0,0,0,0,0,0,0
379,2,1,309,184,734,5,14667,-74.1436797,4.7156848,"Cl. 63l # 124-41, Engativá, Bogotá, D.C., Bogotá, Bogotá, D.C., Colombia",ROOFTOP,234499,1f27ab2f-afd5-49b6-ada3-f432d4452ff8,210301,users_produccion_jardines380@yopmail.com,0,0,0,0,0,0,0,0,0,0,0,0,0,0,0,0,0,0,0,0,0,0,0
380,2,1,310,185,738,1,14742,-74.131608,4.712556,"Cl. 71 #113A-61, Bogotá, Colombia",ROOFTOP,234500,391b72b0-0b69-401f-83b0-92212941aafe,210302,users_produccion_jardines381@yopmail.com,0,0,0,0,0,0,0,0,0,0,0,0,0,0,0,0,0,0,0,0,0,0,0
381,2,1,311,186,744,3,14873,-74.1103165,4.7222433,"Cl. 86c #110-9, Bogotá, Colombia",ROOFTOP,234501,55fd97c2-d946-4b39-bb66-36785943655d,210303,users_produccion_jardines382@yopmail.com,0,0,0,0,0,0,0,0,0,0,0,0,0,0,0,0,0,0,0,0,0,0,0
382,2,1,312,187,746,2,14908,-74.093526,4.711116,"Ak. 86 # 90A-70, Engativá, Bogotá, D.C., Bogotá, Bogotá, D.C., Colombia",ROOFTOP,234502,d51fd2d7-9236-4159-8e9f-aa51d0af99cb,210304,users_produccion_jardines383@yopmail.com,0,0,0,0,0,0,0,0,0,0,0,0,0,0,0,0,0,0,0,0,0,0,0
383,2,1,313,188,749,3,14976,-74.082134,4.713559,"Cra. 79 # 1277C-45, Suba, Bogotá, D.C., Bogotá, Bogotá, D.C., Colombia",ROOFTOP,234503,7f7eceb7-f32a-486b-a22a-9e86e23469d3,210305,users_produccion_jardines384@yopmail.com,0,0,0,0,0,0,0,0,0,0,0,0,0,0,0,0,0,0,0,0,0,0,0
384,2,1,314,189,755,2,15087,-74.070312,4.720632,"Cra. 58d # 130-1, Suba, Bogotá, D.C., Bogotá, Bogotá, D.C., Colombia",ROOFTOP,234504,25abef9a-fd51-401e-ad0e-3374d3aba0ec,210306,users_produccion_jardines385@yopmail.com,0,0,0,0,0,0,0,0,0,0,0,0,0,0,0,0,0,0,0,0,0,0,0
385,2,1,315,190,758,3,15157,-74.0392618,4.7080905,"Cra. 12 #127B - 93, Usaquén, Bogotá, Cundinamarca, Colombia",ROOFTOP,234505,cdd8365a-2821-483c-a9da-cea5c770734e,210307,users_produccion_jardines386@yopmail.com,0,0,0,0,0,0,0,0,0,0,0,0,0,0,0,0,0,0,0,0,0,0,0
386,2,1,316,191,761,2,15208,-74.034224,4.713571,"Cl. 134 # 9A-64, Usaquén, Bogotá, D.C., Bogotá, Bogotá, D.C., Colombia",ROOFTOP,234506,e48c9121-58d6-4299-991c-0ce7a56e6bfa,210308,users_produccion_jardines387@yopmail.com,0,0,0,0,0,0,0,0,0,0,0,0,0,0,0,0,0,0,0,0,0,0,0
387,2,1,318,193,770,5,15383,-74.2846201,4.7259848,"Cl. 10ª Sur #1, Madrid, Cundinamarca, Colombia",ROOFTOP,234507,35db1fc3-5481-4306-89c8-4c19cd1f6bd7,210309,users_produccion_jardines388@yopmail.com,0,0,0,0,0,0,0,0,0,0,0,0,0,0,0,0,0,0,0,0,0,0,0
388,2,1,319,194,776,4,15514,-74.2755563,4.7348738,"Cl. 5 # 20-16, Madrid, Cundinamarca, Colombia",ROOFTOP,234508,aea55087-a52a-4b3e-8d2a-80b378a9802b,210310,users_produccion_jardines389@yopmail.com,0,0,0,0,0,0,0,0,0,0,0,0,0,0,0,0,0,0,0,0,0,0,0
389,2,1,320,195,778,2,15544,-74.255289,4.72847,"Cl. 9 # 1A-95, Madrid, Cundinamarca, Colombia",ROOFTOP,234509,f6235457-6aeb-44a8-bade-cd3f296c57e0,210311,users_produccion_jardines390@yopmail.com,0,0,0,0,0,0,0,0,0,0,0,0,0,0,0,0,0,0,0,0,0,0,0
390,2,1,321,196,782,2,15629,-74.2418276,4.7302905,"Variante Madrid #5, Madrid, Cundinamarca, Colombia",ROOFTOP,234510,a9f9f4e2-b627-4183-bfd3-9d00944ca298,210312,users_produccion_jardines391@yopmail.com,0,0,0,0,0,0,0,0,0,0,0,0,0,0,0,0,0,0,0,0,0,0,0
391,2,1,322,197,785,3,15682,-74.224467,4.7319488,"Cl. 12 #31-40, Funza, Cundinamarca, Colombia",ROOFTOP,234511,7f35a86c-e6b4-41d5-919e-a8230f3dfd27,210313,users_produccion_jardines392@yopmail.com,0,0,0,0,0,0,0,0,0,0,0,0,0,0,0,0,0,0,0,0,0,0,0
392,2,1,324,199,793,2,15850,-74.1976632,4.7189141,"Cl. 27 #12-05, Funza, Cundinamarca, Colombia",ROOFTOP,234512,02eb9f6c-2cbf-46c8-984f-b9609b8b7048,210314,users_produccion_jardines393@yopmail.com,0,0,0,0,0,0,0,0,0,0,0,0,0,0,0,0,0,0,0,0,0,0,0
393,2,1,326,201,802,1,16024,-74.1487449,4.7252839,"Cl 64 #128-95, Bogotá, Colombia",ROOFTOP,234513,9fcf2d7b-fe24-4b83-9e1a-6b6a1fed1b01,210315,users_produccion_jardines394@yopmail.com,0,0,0,0,0,0,0,0,0,0,0,0,0,0,0,0,0,0,0,0,0,0,0
394,2,1,328,203,810,5,16198,-74.1159739,4.729274,"Cra 116a #89A-30, Bogotá, Colombia",ROOFTOP,234514,eb71401c-2f05-4612-a69c-e6db48f3b9cb,210316,users_produccion_jardines395@yopmail.com,0,0,0,0,0,0,0,0,0,0,0,0,0,0,0,0,0,0,0,0,0,0,0
395,2,1,329,204,814,2,16264,-74.094937,4.726506,"Cl 129 Bis #95A-15, Bogotá, Colombia",ROOFTOP,234515,7dfde151-92f2-4691-b11a-a721371f88b5,210317,users_produccion_jardines396@yopmail.com,0,0,0,0,0,0,0,0,0,0,0,0,0,0,0,0,0,0,0,0,0,0,0
396,2,1,330,205,820,1,16387,-74.0790173,4.7364068,"Cl. 145b # 82-68, Suba, Bogotá, D.C., Bogotá, Bogotá, D.C., Colombia",ROOFTOP,234516,b08ea2c7-9b4d-43a0-acfa-37da7065897e,210318,users_produccion_jardines397@yopmail.com,0,0,0,0,0,0,0,0,0,0,0,0,0,0,0,0,0,0,0,0,0,0,0
397,2,1,331,206,824,1,16468,-74.0620835,4.7386109,"Cl. 152b #58-49, Bogotá, Colombia",ROOFTOP,234517,2ab23fd5-7af6-44d9-80d4-54ca0ba3d5b3,210319,users_produccion_jardines398@yopmail.com,0,0,0,0,0,0,0,0,0,0,0,0,0,0,0,0,0,0,0,0,0,0,0
